id,설치장소명,설치장소상세,설치시도명,설치시군구명,설치시설구분,서비스제공사명,와이파이SSID,설치년월,소재지도로명주소,소재지지번주소,관리기관명,관리기관전화번호,위도,경도,데이터기준일자
1,민원실,민원실,경기도,안산시,관공서,안산시,Public_WiFi,2012-5-1,경기도 안산시 단원구 화랑로 387(고잔동),경기도 안산시 단원구 고잔동 515,안산시청,031-481-2300,37.322304,126.832089,2016-05-31
2,의회,의회,경기도,안산시,관공서,안산시,Public_WiFi,2012-5-1,경기도 안산시 단원구 화랑로 387(고잔동),경기도 안산시 단원구 고잔동 515,안산시청,031-481-2300,37.322304,126.832089,2016-05-31
3,단원보건소,민원실 로비,경기도,안산시,관공서,안산시,Public_WiFi,2012-5-1,경기도 안산시 단원구 화랑로 387(고잔동),경기도 안산시 단원구 고잔동 515,안산시청,031-481-2300,37.322304,126.832089,2016-05-31
4,일동주민센터,민원실,경기도,안산시,관공서,안산시,Public_WiFi,2015-11-1,경기도 안산시 상록구 성호로 53 (일동),경기도 안산시 상록구 일동 706-3,안산시청,031-481-2300,37.310356,126.866182,2016-05-31
5,이동주민센터,민원실,경기도,안산시,관공서,안산시,Public_WiFi,2015-11-1,경기도 안산시 상록구 이동로 46 (이동),경기도 안산시 상록구 이동 578-12,안산시청,031-481-2300,37.305387,126.860785,2016-05-31
6,사1동주민센터,민원실,경기도,안산시,관공서,안산시,Public_WiFi,2015-11-1,경기도 안산시 상록구 석호로 171 (사동),경기도 안산시 상록구 사동 1304,안산시청,031-481-2300,37.297103,126.850993,2016-05-31
7,사2동주민센터,민원실,경기도,안산시,관공서,안산시,Public_WiFi,2015-11-1,경기도 안산시 상록구 감골1로 52 (사동),경기도 안산시 상록구 사동 1344-5,안산시청,031-481-2300,37.289835,126.851878,2016-05-31
8,사3동주민센터,민원실,경기도,안산시,관공서,안산시,Public_WiFi,2015-11-1,경기도 안산시 상록구 석호로 171 (사동),경기도 안산시 상록구 사동 1304,안산시청,031-481-2300,37.297103,126.850993,2016-05-31
9,본오1동주민센터,민원실,경기도,안산시,관공서,안산시,Public_WiFi,2015-11-1,경기도 안산시 상록구 샘골로 16 (본오동),경기도 안산시 상록구 본오동 990,안산시청,031-481-2300,37.285153,126.864309,2016-05-31
10,본오2동주민센터,민원실,경기도,안산시,관공서,안산시,Public_WiFi,2015-11-1,경기도 안산시 상록구 각골로 75 (본오동),경기도 안산시 상록구 본오동 796-4,안산시청,031-481-2300,37.296205,126.872356,2016-05-31
11,본오3동주민센터,민원실,경기도,안산시,관공서,안산시,Public_WiFi,2015-11-1,경기도 안산시 상록구 용신로 376 (본오동),경기도 안산시 상록구 본오동 873,안산시청,031-481-2300,37.301426,126.863847,2016-05-31
12,부곡동주민센터,민원실,경기도,안산시,관공서,안산시,Public_WiFi,2015-11-1,경기도 안산시 상록구 성호로 326 (부곡동),경기도 안산시 상록구 부곡동 671-4,안산시청,031-481-2300,37.331852,126.861021,2016-05-31
13,월피동주민센터,민원실,경기도,안산시,관공서,안산시,Public_WiFi,2015-11-1,경기도 안산시 상록구 시낭북로 4 (부곡동),경기도 안산시 상록구 부곡동 738,안산시청,031-481-2300,37.333515,126.856595,2016-05-31
14,성포동주민센터,민원실,경기도,안산시,관공서,안산시,Public_WiFi,2015-11-1,경기도 안산시 상록구 충장로 468 (성포동),경기도 안산시 상록구 성포동 585,안산시청,031-481-2300,37.320615,126.849534,2016-05-31
15,반월동주민센터,민원실,경기도,안산시,관공서,안산시,Public_WiFi,2015-11-1,경기도 안산시 상록구 건건로 51 (건건동),경기도 안산시 상록구 건건동 641-2,안산시청,031-481-2300,37.305972,126.902308,2016-05-31
16,안산동주민센터,민원실,경기도,안산시,관공서,안산시,Public_WiFi,2015-11-1,경기도 안산시 상록구 장하로 315 (수암동),경기도 안산시 상록구 수암동 506,안산시청,031-481-2300,37.361838,126.87327,2016-05-31
17,와동주민센터,민원실,경기도,안산시,관공서,안산시,Public_WiFi,2015-11-1,경기도 안산시 단원구 선부로 273 (와동),경기도 안산시 단원구 와동 280-1,안산시청,031-481-2300,37.341608,126.825653,2016-05-31
18,고잔1동주민센터,민원실,경기도,안산시,관공서,안산시,Public_WiFi,2015-11-1,경기도 안산시 단원구 화정천동로 252 (고잔동),경기도 안산시 단원구 고잔동 659-6,안산시청,031-481-2300,37.327175,126.819111,2016-05-31
19,고잔2동주민센터,민원실,경기도,안산시,관공서,안산시,Public_WiFi,2015-11-1,경기도 안산시 단원구 예술대학로 76 (고잔동),경기도 안산시 단원구 고잔동 672-2,안산시청,031-481-2300,37.323944,126.837617,2016-05-31
20,호수동주민센터,민원실,경기도,안산시,관공서,안산시,Public_WiFi,2015-11-1,경기도 안산시 단원구 광덕2로 125 (고잔동),경기도 안산시 단원구 고잔동 712-2,안산시청,031-481-2300,37.310269,126.82439,2016-05-31
21,원곡본동주민센터,민원실,경기도,안산시,관공서,안산시,Public_WiFi,2015-11-1,경기도 안산시 단원구 부부로 55 (원곡동),경기도 안산시 단원구 원곡동 991-3,안산시청,031-481-2300,37.333234,126.7909,2016-05-31
22,원곡1동주민센터,민원실,경기도,안산시,관공서,안산시,Public_WiFi,2015-11-1,경기도 안산시 단원구 원선로 31 (원곡동),경기도 안산시 단원구 원곡동 821-1,안산시청,031-481-2300,37.32791,126.796958,2016-05-31
23,원곡2동주민센터,민원실,경기도,안산시,관공서,안산시,Public_WiFi,2015-11-1,경기도 안산시 단원구 원선로 91 (원곡동),경기도 안산시 단원구 원곡동 936-5,안산시청,031-481-2300,37.331555,126.801877,2016-05-31
24,선부1동주민센터,민원실,경기도,안산시,관공서,안산시,Public_WiFi,2015-11-1,경기도 안산시 단원구 선부광장서로 47 (선부동),경기도 안산시 단원구 선부동 964-4,안산시청,031-481-2300,37.334306,126.804456,2016-05-31
25,선부2동주민센터,민원실,경기도,안산시,관공서,안산시,Public_WiFi,2015-11-1,경기도 안산시 단원구 지곡로 46 (선부동),경기도 안산시 단원구 선부동 997-2,안산시청,031-481-2300,37.338527,126.802707,2016-05-31
26,선부3동주민센터,민원실,경기도,안산시,관공서,안산시,Public_WiFi,2015-11-1,경기도 안산시 단원구 선삼로 47 (선부동),경기도 안산시 단원구 선부동 1135,안산시청,031-481-2300,37.344951,126.812649,2016-05-31
27,대부동주민센터,민원실,경기도,안산시,관공서,안산시,Public_WiFi,2015-11-1,경기도 안산시 단원구 대부중앙로 97-9 (대부북동),경기도 안산시 단원구 대부북동 467,안산시청,031-481-2300,37.243536,126.585092,2016-05-31
28,상록수보건소,민원실,경기도,안산시,관공서,안산시,Public_WiFi,2016-5-1,경기도 안산시 상록구 차돌배기로1길 5 (사동),경기도 안산시 상록구 사동 1584,안산시청,031-481-2300,37.300555,126.844525,2016-05-31
29,외국인주민센터,민원실,경기도,안산시,관공서,안산시,Public_WiFi,2016-5-1,경기도 안산시 단원구 부부로 43 (원곡동),경기도 안산시 단원구 원곡동 991-1,안산시청,031-481-2300,37.332137,126.79014,2016-05-31
30,차량등록사업소,민원실,경기도,안산시,관공서,안산시,Public_WiFi,2016-5-1,경기도 안산시 단원구 선부광장1로 6 (선부동),경기도 안산시 단원구 선부동 1070-10,안산시청,031-481-2300,37.334973,126.807176,2016-05-31
31,최용신기념관,전시관  로비,경기도,안산시,관공서,안산시,Public_WiFi,2016-5-1,경기도 안산시 상록구 샘골서길 64 (본오동),경기도 안산시 상록구 본오동 879-4,안산시청,031-481-2300,37.299604,126.86251,2016-05-31
32,성호기념관,전시관  로비,경기도,안산시,관공서,안산시,Public_WiFi,2016-5-1,경기도 안산시 상록구 성호로 131 (이동),경기도 안산시 상록구 이동 615,안산시청,031-481-2300,37.314345,126.859907,2016-05-31
33,갈대습지공원,전시관  로비,경기도,안산시,관공서,안산시,Public_WiFi,2016-5-1,경기도 안산시 상록구 해안로 820-116(사동),경기도 안산시 상록구 사동 1031-8,안산시청,031-481-2300,37.276838,126.837926,2016-05-31
34,안산식물원,식물원,경기도,안산시,관공서,안산시,Public_WiFi,2016-5-1,경기도 안산시 상록구 성호로 113 (이동),경기도 안산시 상록구 이동 615,안산시청,031-481-2300,37.314345,126.859907,2016-05-31
35,여성정보하우스,로비  입구,경기도,안산시,관공서,안산시,Public_WiFi,2016-5-1,경기도 안산시 상록구 예술광장1로 32 (월피동),경기도 안산시 상록구 월피동 445-13,안산시청,031-481-2300,37.329635,126.845883,2016-05-31
36,초지동주민센터,민원실,경기도,안산시,관공서,안산시,Public_WiFi,2015-11-1,경기도 안산시 단원구 초지동로 67 (초지동),경기도 안산시 단원구 초지동 728-1,안산시청,031-481-2300,37.309933,126.816824,2016-05-31
37,대천5동 주민센터,동사무소 주민센터,충청남도,보령시,관공서,SKT,,2014-12-1,충청남도 보령시 대천항로 204,충청남도 보령시 신흑동 산221-19,충청남도 보령시,041-930-4000,36.3172002,126.514525,2016-08-08
38,보령시 현대시장,시장상가 내,충청남도,보령시,기타,LG U+,,2014-12-1,충청남도 보령시 대흥로 16,충청남도 보령시 동대동 618-69,충청남도 보령시,041-930-4000,36.3492674,126.596682,2016-08-08
39,미산 보건지소,보건지소 내,충청남도,보령시,관공서,LG U+,,2014-12-1,충청남도 보령시 내평봉성길 5,충청남도 보령시 미산면 내평리 350-1,충청남도 보령시,041-930-4000,36.240691,126.681069,2016-08-08
40,보령시 보건소,보건소 로비,충청남도,보령시,관공서,KT,,2015-1-1,충청남도 보령시 남포면 보령남로 234,충청남도 보령시 남포면 봉덕리 39-1,충청남도 보령시,041-930-4000,36.3245106,126.60237,2016-08-08
41,남포면사무소,면사무소 로비,충청남도,보령시,관공서,KT,,2015-1-1,충청남도 보령시 남포면 충서로 1839-20,충청남도 보령시 남포면 옥서리 326-1,충청남도 보령시,041-930-4000,36.3046178,126.605036,2016-08-08
42,보령시 중앙시장,대광상회,충청남도,보령시,기타,KT,,2015-1-1,충청남도 보령시 중앙시장2길 18,충청남도 보령시 대천동 331-7,충청남도 보령시,041-930-4000,36.3507129,126.590526,2016-08-08
43,보령시 중앙시장,중앙커텐,충청남도,보령시,기타,KT,,2015-1-1,충청남도 보령시 중앙시장1길 24,충청남도 보령시 대천동 331-7,충청남도 보령시,041-930-4000,36.3509053,126.593042,2016-08-08
44,보령시 동부시장,동부시장 중앙,충청남도,보령시,기타,KT,,2015-1-1,충청남도 보령시 한내시장길 16,충청남도 보령시 대천동 196-15,충청남도 보령시,041-930-4000,36.3500723,126.595074,2016-08-08
45,보령시 한내시장,한내시장 중앙,충청남도,보령시,기타,KT,,2015-1-1,충청남도 보령시 한내시장길 12,충청남도 보령시 대천동 195-2,충청남도 보령시,041-930-4000,36.3498344,126.595053,2016-08-08
46,대천3동 주민센터,동사무소 주민센터,충청남도,보령시,관공서,KT,,2015-1-1,충청남도 보령시 대청로 167,충청남도 보령시 동대동 290-5,충청남도 보령시,041-930-4000,36.3561064,126.611305,2016-08-08
47,보령시 정보화교육장,정보화교육장 내,충청남도,보령시,관공서,KT,,2015-1-1,충청남도 보령시 성주산로 77,충청남도 보령시 명천동 269-4,충청남도 보령시,041-930-4000,36.3328115,126.611305,2016-08-08
48,대천4동 주민센터,동사무소 주민센터,충청남도,보령시,관공서,KT,,2015-1-1,충청남도 보령시 보령남로 49,충청남도 보령시 명천동 442-16,충청남도 보령시,041-930-4000,36.3404961,126.600867,2016-08-08
49,미산면사무소,면사무소 로비,충청남도,보령시,관공서,KT,,2015-1-1,충청남도 보령시 미산면 내평봉성길 5,충청남도 보령시 미산면 내평리 350-1,충청남도 보령시,041-930-4000,36.2106148,126.676453,2016-08-08
50,미산면 주민자치센터,주민자치센터 중앙,충청남도,보령시,관공서,KT,,2015-1-1,충청남도 보령시 미산면 내평봉성길 7,충청남도 보령시 미산면 내평리 355-1,충청남도 보령시,041-930-4000,36.21067,126.676898,2016-08-08
51,미산면 효나눔복지센터,복지센터 로비,충청남도,보령시,서민·복지시설,KT,,2015-1-1,충청남도 보령시 미산면 판미로 1471,충청남도 보령시 미산면 풍계리 283-6,충청남도 보령시,041-930-4000,36.2903418,126.675278,2016-08-08
52,성주면 주민센터,면사무소 주민센터,충청남도,보령시,관공서,KT,,2015-1-1,충청남도 보령시 성주면 심원계곡로 6-7,충청남도 보령시 성주면 성주리 191-1,충청남도 보령시,041-930-4000,36.3360941,126.651368,2016-08-08
53,성주면 보건지소,보건지소 내,충청남도,보령시,관공서,KT,,2015-1-1,충청남도 보령시 성주면 심원계곡로 6-15,충청남도 보령시 성주면 성주리 191-4,충청남도 보령시,041-930-4000,36.3355639,126.651237,2016-08-08
54,오천면사무소,면사무소 로비,충청남도,보령시,관공서,KT,,2015-1-1,충청남도 보령시 오천면 충청수영로 826,충청남도 보령시 오천면 소성리 665-2,충청남도 보령시,041-930-4000,36.4383921,126.522412,2016-08-08
55,오천보건지소,보건지소 내,충청남도,보령시,관공서,KT,,2015-1-1,충청남도 보령시 오천면 충청수영로 838,충청남도 보령시 오천면 소성리 691-55,충청남도 보령시,041-930-4000,36.4387325,126.521884,2016-08-08
56,웅천읍사무소,읍사무소 로비,충청남도,보령시,관공서,KT,,2015-1-1,충청남도 보령시 웅천읍 장터중앙길 88,충청남도 보령시 웅천읍 대창리 428-2,충청남도 보령시,041-930-4000,36.2319887,126.601557,2016-08-08
57,웅천보건지소,보건지소 내,충청남도,보령시,관공서,KT,,2015-1-1,충청남도 보령시 웅천읍 충서로 939-4,충청남도 보령시 웅천읍 대창리 883-11,충청남도 보령시,041-930-4000,36.2345179,126.596868,2016-08-08
58,주교보건지소,보건지소 내,충청남도,보령시,관공서,KT,,2015-1-1,충청남도 보령시 주교면 울계큰길 374,충청남도 보령시 주교면 주교리 217-1,충청남도 보령시,041-930-4000,36.3896427,126.569795,2016-08-08
59,주교면사무소,면사무소 로비,충청남도,보령시,관공서,KT,,2015-1-1,충청남도 보령시 주교면 울계큰길 396,충청남도 보령시 주교면 주교리 92-2,충청남도 보령시,041-930-4000,36.3908484,126.569271,2016-08-08
60,주교면 주민자치센터,주민자치센터 중앙,충청남도,보령시,관공서,KT,,2015-1-1,충청남도 보령시 주교면 울계큰길 396,충청남도 보령시 주교면 주교리 92-2,충청남도 보령시,041-930-4000,36.3908484,126.569271,2016-08-08
61,주산보건지소,보건지소 내,충청남도,보령시,관공서,KT,,2015-1-1,충청남도 보령시 주산면 충서로 389-6,충청남도 보령시 주산면 야룡리 181-1,충청남도 보령시,041-930-4000,36.1983589,126.631699,2016-08-08
62,주포보건지소,보건지소 내,충청남도,보령시,관공서,KT,,2015-1-1,충청남도 보령시 주포면 질재로 47-10,충청남도 보령시 주포면 보령리 425-2,충청남도 보령시,041-930-4000,36.4151016,126.587958,2016-08-08
63,주포면사무소,면사무소 로비,충청남도,보령시,관공서,KT,,2015-1-1,충청남도 보령시 주포면 질재로 47-10,충청남도 보령시 주포면 보령리 425-2,충청남도 보령시,041-930-4000,36.4151016,126.587958,2016-08-08
64,천북보건지소,보건지소 내,충청남도,보령시,관공서,KT,,2015-1-1,충청남도 보령시 천북면 홍보로 462,충청남도 보령시 천북면 하만리 130-16,충청남도 보령시,041-930-4000,36.4787472,126.52728,2016-08-08
65,천북면사무소,면사무소 로비,충청남도,보령시,관공서,KT,,2015-1-1,충청남도 보령시 천북면 홍보로 462,충청남도 보령시 천북면 하만리 130-16,충청남도 보령시,041-930-4000,36.4787472,126.52728,2016-08-08
66,청라보건지소,보건지소 내,충청남도,보령시,관공서,KT,,2015-1-1,충청남도 보령시 청라면 원모루길 222-14,충청남도 보령시 청라면 나원리 905,충청남도 보령시,041-930-4000,36.3894076,126.673026,2016-08-08
67,청라면사무소,면사무소 로비,충청남도,보령시,관공서,KT,,2015-1-1,충청남도 보령시 청라면 원모루길 223,충청남도 보령시 청라면 나원리 928-7,충청남도 보령시,041-930-4000,36.3904581,126.673601,2016-08-08
68,청소보건지소,보건지소 내,충청남도,보령시,관공서,KT,,2015-1-1,충청남도 보령시 청소면 평촌3길 27,충청남도 보령시 청소면 진죽리 353-11,충청남도 보령시,041-930-4000,36.4472671,126.590398,2016-08-08
69,대천항수산시장,수산시장 입구 외,충청남도,보령시,기타,KT,,2015-11-1,충청남도 보령시 대천항로 334,충청남도 보령시 신흑동 2240-6,충청남도 보령시,041-930-4000,36.3264735,126.508832,2016-08-08
70,무창포 수산물시장,수산물시장 입구 외,충청남도,보령시,기타,KT,,2015-11-1,충청남도 보령시 열린바다2길 46,충청남도 보령시 웅천읍 관당리 888-57,충청남도 보령시,041-930-4000,36.2485417,126.536795,2016-08-08
71,시립노인전문병원,병원 로비,충청남도,보령시,관공서,KT,,2015-11-1,충청남도 보령시 질재로 373,충청남도 보령시 청라면 장산리 828-2,충청남도 보령시,041-930-4000,36.4061364,126.60929,2016-08-08
72,종합사회복지관,사회복지관 로비,충청남도,보령시,서민·복지시설,KT,,2015-11-1,충청남도 보령시 천변북길 121,충청남도 보령시 보령시 대천동 618-9,충청남도 보령시,041-930-4000,36.351249,126.600892,2016-08-08
73,보령아람지역센터,지역센터 내,충청남도,보령시,서민·복지시설,KT,,2015-11-1,충청남도 보령시 한내로터리길 92,충청남도 보령시 동대동 1966,충청남도 보령시,041-930-4000,36.3473652,126.611366,2016-08-08
74,보령종합터미널,터미널 로비,충청남도,보령시,교통시설,KT,,2015-11-1,충청남도 보령시 터미널길 8,충청남도 보령시 궁촌동 347,충청남도 보령시,041-930-4000,36.3424913,126.589678,2016-08-08
75,봉성보건진료소,진료소 내,충청남도,보령시,관공서,KT,,2015-11-1,충청남도 보령시 미산면 봉성길 131,충청남도 보령시 미산면 봉성리 429-1,충청남도 보령시,041-930-4000,36.2386694,126.693723,2016-08-08
76,비젼스쿨 지역아동센터,아동센터 내,충청남도,보령시,서민·복지시설,KT,,2015-11-1,충청남도 보령시 보령남로 40,충청남도 보령시 명천동 443-19,충청남도 보령시,041-930-4000,36.3413973,126.59978,2016-08-08
77,삼현보건진료소,진료소 내,충청남도,보령시,관공서,KT,,2015-11-1,충청남도 보령시 남포면 삼현2길 18-16,충청남도 보령시 남포면 삼현리 426-2,충청남도 보령시,041-930-4000,36.3116301,126.5493,2016-08-08
78,수곡보건진료소,진료소 내,충청남도,보령시,관공서,KT,,2015-11-1,충청남도 보령시 주산면 대창증산로 620,충청남도 보령시 주산면 증산리 96-9,충청남도 보령시,041-930-4000,36.1811297,126.593273,2016-08-08
79,양기보건진료소,진료소 내,충청남도,보령시,관공서,KT,,2015-11-1,충청남도 보령시 남포면 방목길 17,충청남도 보령시 남포면 양기리 622-10,충청남도 보령시,041-930-4000,36.2768422,126.567196,2016-08-08
80,오천면 원산도출장소,출장소 로비,충청남도,보령시,관공서,KT,,2015-11-1,충청남도 보령시 원산도3길 376,충청남도 보령시 오천면 원산도리 629-4,충청남도 보령시,041-930-4000,36.3802397,126.432118,2016-08-08
81,장은보건진료소,진료소 내,충청남도,보령시,관공서,KT,,2015-11-1,충청남도 보령시 천북면 홍보로 751-2,충청남도 보령시 천북면 장은리 347,충청남도 보령시,041-930-4000,36.5028216,126.518976,2016-08-08
82,장현보건진료소,진료소 내,충청남도,보령시,관공서,KT,,2015-11-1,충청남도 보령시 청라면 오서산길 44,충청남도 보령시 청라면 장현리 811-3,충청남도 보령시,041-930-4000,36.4205163,126.662793,2016-08-08
83,정심요양원,요양원 중앙,충청남도,보령시,서민·복지시설,KT,,2015-11-1,충청남도 보령시 주교면 보령북로 404,충청남도 보령시 주교면 관창리 402-7,충청남도 보령시,041-930-4000,36.3752004,126.583475,2016-08-08
84,주산면사무소 민원실,면사무소 로비,충청남도,보령시,관공서,KT,,2015-11-1,충청남도 보령시 충서로 389-6,충청남도 보령시 주산면 야룡리 181-2,충청남도 보령시,041-930-4000,36.1983589,126.631699,2016-08-08
85,황교보건진료소,진료소 내,충청남도,보령시,관공서,KT,,2015-11-1,충청남도 보령시 웅천읍 독산로 550-8,충청남도 보령시 웅천읍 황교리 580-2,충청남도 보령시,041-930-4000,36.2236603,126.550334,2016-08-08
86,선촌여객터미널 옆,여객터미널 옆,충청남도,보령시,교통시설,KT,,2015-11-1,충청남도 보령시 오천면 원산도리 474-8,충청남도 보령시 오천면 원산도리 474-8,충청남도 보령시,041-930-4000,36.3833525,126.43329,2016-08-08
87,대천2동 민원실,동사무소 로비,충청남도,보령시,관공서,LG U+,,2015-11-1,충청남도 보령시 중앙로 142-16,충청남도 보령시 대천동 408-7,충청남도 보령시,041-930-4000,36.3534103,126.589781,2016-08-08
88,대천애육원,애육원 내,충청남도,보령시,서민·복지시설,LG U+,,2015-11-1,충청남도 보령시 마루뜰길 36,충청남도 보령시 신흑동 647-2,충청남도 보령시,041-930-4000,36.3192306,126.523719,2016-08-08
89,농업기술센터 교육관,교육관 내,충청남도,보령시,관공서,LG U+,,2015-11-1,충청남도 보령시 주포면 충서로 3220,충청남도 보령시 주포면 관산리 432,충청남도 보령시,041-930-4000,36.397027,126.571342,2016-08-08
90,명천종합사회복지관,복지관 내,충청남도,보령시,서민·복지시설,LG U+,,2015-11-1,충청남도 보령시 주공로 50,충청남도 보령시 명천동 413,충청남도 보령시,041-930-4000,36.3425521,126.603428,2016-08-08
91,청소년문화의집,문화의집 로비,충청남도,보령시,서민·복지시설,LG U+,,2015-11-1,충청남도 보령시 문화원길 9,충청남도 보령시 동대동 983-9,충청남도 보령시,041-930-4000,36.3505615,126.600098,2016-08-08
92,청소년수련관,수련관 로비,충청남도,보령시,서민·복지시설,LG U+,,2015-11-1,충청남도 보령시 성주면 성주산로 500,충청남도 보령시 주면 성주리 229-7,충청남도 보령시,041-930-4000,36.3266555,126.650867,2016-08-08
93,수도사업소,수도사업소 내,충청남도,보령시,관공서,LG U+,,2015-11-1,충청남도 보령시 대천로 35,충청남도 보령시 대천동 170-1,충청남도 보령시,041-930-4000,36.3519472,126.597337,2016-08-08
94,오천면어항출장소,어항출장소 내,충청남도,보령시,관공서,LG U+,,2015-11-1,충청남도 보령시 대천항중앙길 42,충청남도 보령시 신흑동 2240-3,충청남도 보령시,041-930-4000,36.3273042,126.509232,2016-08-08
95,한내시장2,한내시장 입구,충청남도,보령시,기타,LG U+,,2015-11-1,충청남도 보령시 대천로 5-1,충청남도 보령시 대천동 201-7,충청남도 보령시,041-930-4000,36.3494094,126.59625,2016-08-08
96,충남정심원,정심원 내부,충청남도,보령시,서민·복지시설,SKT,,2015-11-1,충청남도 보령시 주교면 보령북로 404,충청남도 보령시 주교면 관창리 402-7,충청남도 보령시,041-930-4000,36.3764278,126.585028,2016-08-08
97,청소면사무소,면사무소 내,충청남도,보령시,관공서,SKT,,2015-11-1,충청남도 보령시 청소면 청소큰길 167,충청남도 보령시 청소면 진죽리 372-6,충청남도 보령시,041-930-4000,36.445451,126.589538,2016-08-08
98,대천1동 민원실,동사무소 내,충청남도,보령시,관공서,SKT,,2015-11-1,충청남도 보령시 대천로 35,충청남도 보령시 대천동 170-1,충청남도 보령시,041-930-4000,36.3518851,126.597084,2016-08-08
99,노인종합복지관,종합복지관 내,충청남도,보령시,서민·복지시설,SKT,,2015-11-1,충청남도 보령시 대천로 113,충청남도 보령시 죽정동 703-1,충청남도 보령시,041-930-4000,36.3562381,126.604187,2016-08-08
100,지역자활센터,자활센터 내,충청남도,보령시,서민·복지시설,SKT,,2015-11-1,충청남도 보령시 원동1길 95,충청남도 보령시 동대동 771-3,충청남도 보령시,041-930-4000,36.3503386,126.600287,2016-08-08
101,지역아동센터,아동센터 내,충청남도,보령시,서민·복지시설,SKT,,2015-11-1,충청남도 보령시 천변남길 316,충청남도 보령시 동대동 739-35,충청남도 보령시,041-930-4000,36.3522671,126.603516,2016-08-08
102,성주지역아동센터,아동센터 내,충청남도,보령시,서민·복지시설,SKT,,2015-11-1,충청남도 보령시 성주면 청성로 431,충청남도 보령시 성주면 성주리 265-217,충청남도 보령시,041-930-4000,36.3467402,126.659328,2016-08-08
103,성주면 주민자치센터,자치센터 내,충청남도,보령시,관공서,SKT,,2015-11-1,충청남도 보령시 성주면 화장골길 110-15,충청남도 보령시 성주면 성주리 219,충청남도 보령시,041-930-4000,36.3305279,126.651184,2016-08-08
104,이야기마을,이야기마을 내,충청남도,보령시,서민·복지시설,SKT,,2015-11-1,충청남도 보령시 웅천읍 부당길 63-43,충청남도 보령시 웅천읍 수부리 697-1,충청남도 보령시,041-930-4000,36.2695398,126.616008,2016-08-08
105,청라면 주민자치센터,주민자치센터 중앙,충청남도,보령시,관공서,SKT,,2015-11-1,충청남도 보령시 청라면 원모루길 225,충청남도 보령시 청라면 나원리 927-3,충청남도 보령시,041-930-4000,36.3904982,126.673757,2016-08-08
106,교성보건진료소,진료소 내,충청남도,보령시,관공서,SKT,,2015-11-1,충청남도 보령시 오천면 오천중앙로 276,충청남도 보령시 오천면 교성리 847-4,충청남도 보령시,041-930-4000,36.4211942,126.539801,2016-08-08
107,학성보건진료소,진료소 내,충청남도,보령시,관공서,SKT,,2015-11-1,충청남도 보령시 천북면 학성염전길 13,충청남도 보령시 천북면 학성리 520-51,충청남도 보령시,041-930-4000,36.4562943,126.498202,2016-08-08
108,소화데레사의집,시설 내,충청남도,보령시,서민·복지시설,SKT,,2015-11-1,충청남도 보령시 대량비선재길 65-69,충청남도 보령시 신흑동 705-1,충청남도 보령시,041-930-4000,36.3168141,126.528838,2016-08-08
109,오천여객선터미널,여객선터미널 내,충청남도,보령시,교통시설,SKT,,2015-11-1,,충청남도 보령시 오천면 소성리 700-86,충청남도 보령시,041-930-4000,36.4390774,126.519807,2016-08-08
110,대천항 활어판매장,판매장 입구 야외,충청남도,보령시,기타,SKT,,2015-11-1,충청남도 보령시 대천항로 396,충청남도 보령시 신흑동 950-86,충청남도 보령시,041-930-4000,36.3284947,126.505086,2016-08-08
111,중앙도서관,중앙도서관,충청남도,보령시,서민·복지시설,KT,Public WiFi Free,2014-1-1,충청남도 보령시 천변북길 121,,충청남도 보령시,041-930-3543,36.3513478,126.600938,2016-08-16
112,죽정도서관,죽정도서관,충청남도,보령시,서민·복지시설,KT,Boryeong_wifi_free,2016-7-1,충청남도 보령시 체육관길 17,,충청남도 보령시,041-930-3128,36.357757,126.608565,2016-08-16
113,동탄3동 주민센터,민원실,경기도,화성시,관공서,SKT  KT,,2014-1-1,경기도 화성시 동탄지성로 151,경기도 화성시 능동 1119,동탄3동 주민센터,031-369-4070,37.20988853,127.0586455,2016-09-20
114,발안시장,여우야,경기도,화성시,전통시장,화성시,Public WiFi Free,2014-9-1,경기도 화성시 향남읍 평2길 21,경기도 화성시 향남읍 평리 109-18,화성시,031-369-2308,37.13208568,126.9081248,2016-09-20
115,사강시장,신협,경기도,화성시,전통시장,화성시,Public WiFi Free,2014-9-1,경기도 화성시 송산면 송산포도로 95,경기도 화성시 송산면 사강리 639-8번지,화성시,031-369-2308,37.21371479,126.7382567,2016-09-20
116,송산면주민센터,경기도 화성시 송산면 매봉산길 12,경기도,화성시,관공서,SKT,t wifi zon,2014-9-1,경기도 화성시 송산면 매봉산길 12,경기도 화성시 송산면 삼존리 203-5,송산면주민센터,031-369-3764,37.21777104,126.7389749,2016-09-20
117,우리꽃식물원,식물원,경기도,화성시,지역문화시설,화성시,Public WiFi Free,2014-9-1,경기도 화성시 팔탄면 버들로 1613,경기도 화성시 팔탄면 매곡리 172-9번지,화성시,031-369-2308,37.11433582,126.8796364,2016-09-20
118,조암시장,조암안경,경기도,화성시,전통시장,화성시,Public WiFi Free,2014-9-1,경기도 화성시 우정읍 3.1만세로 41,경기도 화성시 우정읍 조암리 340-12번지,화성시,031-369-2308,37.08220239,126.8161686,2016-09-20
119,조암시장,화성통신,경기도,화성시,전통시장,화성시,Public WiFi Free,2014-9-1,경기도 화성시 우정읍 3.1만세로 41,경기도 화성시 우정읍 조암리 350-34번지,화성시,031-369-2308,37.08278132,126.8176068,2016-09-20
120,기배동 주민센터,민원실,경기도,화성시,관공서,SKT,t wifi zon,2014-9-1,경기도 화성시 기안남로 62,경기도 화성시 기안동 457-21,기배동 주민센터,031-369-4584,37.22429881,126.9846737,2016-09-20
121,기배동 주민센터,민원실,경기도,화성시,관공서,KT,ollehwifi,2014-8-1,경기도 화성시 기안남로 62,경기도 화성시 기안동 457-21,기배동 주민센터,031-369-4584,37.22429881,126.9846737,2016-09-20
122,세동보건진료소,민원실,대전광역시,유성구,관공서,KT,,2014-1-1,,대전광역시 유성구 세동 662-3,대전광역시 유성구청,042-611-2183,36.3130241,127.2675181,2016-07-28
123,궁평항,궁평항,경기도,화성시,관광,화성시,Public WiFi Free,2014-9-1,경기도 화성시 서신면 궁평항로 1049-24,경기도 화성시 서신면 궁평리 689,화성시,031-369-2308,37.11625361,126.6817315,2016-09-20
124,남양사거리,남양사거리,경기도,화성시,전통시장,화성시,Public WiFi Free,2014-9-1,경기도 화성시 남양읍 시청로 3,경기도 화성시 남양읍 1198-3번지,화성시,031-369-2308,37.20897206,126.8186364,2016-09-20
125,남양시장,소치하우스,경기도,화성시,전통시장,화성시,Public WiFi Free,2014-9-1,경기도 화성시 남양시장로66번길 10-5,경기도 화성시 남양읍 1172-27번지,화성시,031-369-2308,37.20829178,126.8168896,2016-09-20
126,남양시장,한일마트,경기도,화성시,전통시장,화성시,Public WiFi Free,2014-9-1,경기도 화성시 남양읍 남양시장로 84,경기도 화성시 남양읍 1267-4번지,화성시,031-369-2308,37.20969513,126.8185361,2016-09-20
127,동탄1동 주민센터,민원실,경기도,화성시,관공서,동탄1동,,2014-1-1,경기도 화성시 동탄반석로 195,경기도 화성시 반송동 86,화성시 동탄1동,031-369-4663,37.20638552,127.0718904,2016-09-20
128,공성면 보건지소,대기실,경상북도,상주시,관공서,LGU+,,2013-12-1,경상북도 상주시 공성면 공성중앙로 61,경상북도 상주시 공성면 옥산리 307-2,경상북도 상주시청,054-537-7082,36.2830974,128.0925686,2015-09-30
129,상주지역자활센터,대기실,경상북도,상주시,서민·복지시설,LGU+,,2013-12-1,경상북도 상주시 중앙로 146,경상북도 상주시 남성동 50,경상북도 상주시청,054-537-7082,36.4155311,128.1540955,2015-09-30
130,상주 중앙시장,대기실,경상북도,상주시,편의시설,LGU+,,2013-12-1,경상북도 상주시 풍물시장길 15,경상북도 상주시 남성동 85-10,경상북도 상주시청,054-537-7082,36.413401,128.1606886,2015-09-30
131,상주시 보건소,대기실,경상북도,상주시,관공서,LGU+,,2013-12-1,경상북도 상주시 중앙로 111,경상북도 상주시 무양동 33-4,경상북도 상주시청,054-537-7082,36.4164612,128.1501593,2015-09-30
132,상주시 보건소,2층복도,경상북도,상주시,관공서,LGU+,,2013-12-1,경상북도 상주시 중앙로 111,경상북도 상주시 무양동 33-4,경상북도 상주시청,054-537-7082,36.4164612,128.1501593,2015-09-30
133,청리면 보건지소,대기실,경상북도,상주시,관공서,LGU+,,2013-12-1,경상북도 상주시 청리면 남상주로 1163,경상북도 상주시 청리면 월로리 661-1,경상북도 상주시청,054-537-7082,36.3397774,128.1319272,2015-09-30
134,함창읍 보건지소,대기실,경상북도,상주시,관공서,LGU+,,2013-12-1,경상북도 상주시 함창읍 함창중앙로 130,경상북도 상주시 함창읍 구향리 203-1,경상북도 상주시청,054-537-7082,36.5691024,128.1784382,2015-09-30
135,서대문구청,민원실 각층,서울특별시,서대문구,관공서,서대문구,Public WiFi@Seodaemun,2013-6-1,서울특별시 서대문구 연희로248,,서울특별시 서대문구청,02-330-8754,37.5790758,126.936794,2016-10-26
136,서대문구청 1 2별관,민원실 각층,서울특별시,서대문구,관공서,서대문구,Public WiFi@Seodaemun,2013-6-1,서울특별시 서대문구 연희로262-20,,서울특별시 서대문구청,02-330-8754,37.5809687,126.9368566,2016-10-26
137,서대문보건소,민원실 각층,서울특별시,서대문구,관공서,서대문구,Public WiFi@Seodaemun,2013-6-1,서울특별시 서대문구 연희로242,,서울특별시 서대문구청,02-330-8754,37.5785493,126.9362252,2016-10-26
138,서대문구의회,민원실 각층,서울특별시,서대문구,관공서,서대문구,Public WiFi@Seodaemun,2013-6-1,서울특별시 서대문구 통일로 279-22,,서울특별시 서대문구청,02-330-8754,37.5760083,126.954311,2016-10-26
139,자연사박물관,각층,서울특별시,서대문구,관공서,서대문구,Public WiFi@Seodaemun,2013-6-1,서울특별시 서대문구 연희로32길 51,,서울특별시 서대문구청,02-330-8754,37.5765663,126.9376126,2016-10-26
140,천연분소,사무실,서울특별시,서대문구,관공서,서대문구,Public WiFi@Seodaemun,2013-6-1,서울특별시 서대문구 독립문로 27,,서울특별시 서대문구청,02-330-8754,37.5696141,126.961293,2016-10-26
141,홍은1동주민센터,민원실 각층,서울특별시,서대문구,관공서,서대문구,Public WiFi@Seodaemun,2013-6-1,서울특별시 서대문구 홍은중앙로 85,,서울특별시 서대문구청,02-330-8754,37.5989056,126.9471111,2016-10-26
142,서대문구청 4별관(홍은2동),민원실 각층,서울특별시,서대문구,관공서,서대문구,Public WiFi@Seodaemun,2013-6-1,서울특별시 서대문구 모래내로 334,,서울특별시 서대문구청,02-330-8754,37.5801972,126.9342509,2016-10-26
143,홍제1동주민센터,민원실 각층,서울특별시,서대문구,관공서,서대문구,Public WiFi@Seodaemun,2013-6-1,서울특별시 서대문구 통일로 435-1,,서울특별시 서대문구청,02-330-8754,37.5876988,126.9448779,2016-10-26
144,홍제2동주민센터,민원실 각층,서울특별시,서대문구,관공서,서대문구,Public WiFi@Seodaemun,2013-6-1,서울특별시 서대문구 통일로34길 27,,서울특별시 서대문구청,02-330-8754,37.586107,126.949338,2016-10-26
145,홍제3동주민센터,민원실 각층,서울특별시,서대문구,관공서,서대문구,Public WiFi@Seodaemun,2013-6-1,서울특별시 서대문구 세검정로4길 32,,서울특별시 서대문구청,02-330-8754,37.5938154,126.9497,2016-10-26
146,남가좌1동주민센터,민원실 각층,서울특별시,서대문구,관공서,서대문구,Public WiFi@Seodaemun,2013-6-1,서울특별시 서대문구 수색로2길 48,,서울특별시 서대문구청,02-330-8754,37.5708753,126.9164984,2016-10-26
147,남가좌2동주민센터,민원실 각층,서울특별시,서대문구,관공서,서대문구,Public WiFi@Seodaemun,2013-6-1,서울특별시 서대문구 증가로10길 28,,서울특별시 서대문구청,02-330-8754,37.5784658,126.9238889,2016-10-26
148,북가좌1동주민센터,민원실 각층,서울특별시,서대문구,관공서,서대문구,Public WiFi@Seodaemun,2013-6-1,서울특별시 서대문구 수색로 100-55,,서울특별시 서대문구청,02-330-8754,37.5743059,126.9102097,2016-10-26
149,북가좌2동주민센터,민원실 각층,서울특별시,서대문구,관공서,서대문구,Public WiFi@Seodaemun,2013-6-1,서울특별시 서대문구 응암로1길 10,,서울특별시 서대문구청,02-330-8754,37.5815,126.9112,2016-10-26
150,연희동주민센터,민원실 각층,서울특별시,서대문구,관공서,서대문구,Public WiFi@Seodaemun,2013-6-1,서울특별시 서대문구 연희로 189,,서울특별시 서대문구청,02-330-8754,37.5739083,126.9351754,2016-10-26
151,신촌동주민센터,민원실 각층,서울특별시,서대문구,관공서,서대문구,Public WiFi@Seodaemun,2013-6-1,서울특별시 서대문구 이화여대길 92-8,,서울특별시 서대문구청,02-330-8754,37.5595583,126.9435096,2016-10-26
152,북아현동주민센터,민원실 각층,서울특별시,서대문구,관공서,서대문구,Public WiFi@Seodaemun,2013-6-1,서울특별시 서대문구 북아현로 24,,서울특별시 서대문구청,02-330-8754,37.5595,126.957025,2016-10-26
153,충현동주민센터,민원실 각층,서울특별시,서대문구,관공서,서대문구,Public WiFi@Seodaemun,2013-6-1,서울특별시 서대문구 북아현로22길 38,,서울특별시 서대문구청,02-330-8754,37.5648266,126.9546863,2016-10-26
154,천연동주민센터,민원실 각층,서울특별시,서대문구,관공서,서대문구,Public WiFi@Seodaemun,2013-6-1,서울특별시 서대문구 성산로 694,,서울특별시 서대문구청,02-330-8754,37.5711189,126.9590509,2016-10-26
155,홍은1동자치회관,민원실 각층,서울특별시,서대문구,관공서,서대문구,Public WiFi@Seodaemun,2013-6-1,서울특별시 서대문구 세검정로1길 45,,서울특별시 서대문구청,02-330-8754,37.5932285,126.9438879,2016-10-26
156,연희동자치회관,민원실 각층,서울특별시,서대문구,관공서,서대문구,Public WiFi@Seodaemun,2013-6-1,서울특별시 서대문구 증가로 13-10,,서울특별시 서대문구청,02-330-8754,37.5693512,126.9309296,2016-10-26
157,신촌동자치회관,민원실 각층,서울특별시,서대문구,관공서,서대문구,Public WiFi@Seodaemun,2013-6-1,서울특별시 서대문구 연세로2나길 47,,서울특별시 서대문구청,02-330-8754,37.5578022,126.9395129,2016-10-26
158,충현동자치회관,민원실 각층,서울특별시,서대문구,관공서,서대문구,Public WiFi@Seodaemun,2013-6-1,서울특별시 서대문구 경기대로 40,,서울특별시 서대문구청,02-330-8754,37.5629076,126.9623752,2016-10-26
159,홍제1동자치회관,민원실 각층,서울특별시,서대문구,관공서,서대문구,Public WiFi@Seodaemun,2013-6-1,서울특별시 서대문구 통일로27길 19,,서울특별시 서대문구청,02-330-8754,37.583167,126.94845,2016-10-26
160,안산방문자센터,외부옥상,서울특별시,서대문구,관공서,서대문구,Public WiFi@Seodaemun,2013-6-1,서울특별시 서대문구 연희로32길 134,,서울특별시 서대문구청,02-330-8754,37.5794903,126.9380164,2016-10-26
161,로사의집,건물 내,경상남도,함안군,편의시설,KT,Public WiFi Free,2013-12-1,경상남도 함안군 산인면 입곡공원길 224-96,경상남도 함안군 산인면 입곡리 1077-8,함안군,055-580-2114,35.2570002,128.4423879,2016-09-13
162,칠원보건지소,건물 내,경상남도,함안군,편의시설,KT,Public WiFi Free,2013-12-1,경상남도 함안군 칠원읍 용산1길 28,경상남도 함안군 칠원읍 구성리 652-9,함안군,055-580-2114,35.3088623,128.517468,2016-09-13
163,함안군청 차량등록사업소,건물 내,경상남도,함안군,편의시설,KT,Public WiFi Free,2013-12-1,경상남도 함안군 가야읍 가야12길 12,경상남도 함안군 가야읍 말산리 58-2,함안군,055-580-2114,35.2775964,128.4112703,2016-09-13
164,가야시장,시장 내,경상남도,함안군,편의시설,KT,Public WiFi Free,2014-12-1,경상남도 함안군 가야읍 가야8길 8,경상남도 함안군 가야읍 말산리 470-1,함안군,055-580-2114,35.2772457,128.4064759,2016-09-13
165,군북시장,시장 내,경상남도,함안군,편의시설,KT,Public WiFi Free,2014-12-1,경상남도 함안군 군북면 중암8길 19-1,경상남도 함안군 군북면 중암리 67-11,함안군,055-580-2114,35.261287,128.3468279,2016-09-13
166,대산시장,시장 내,경상남도,함안군,편의시설,KT,Public WiFi Free,2014-12-1,경상남도 함안군 대산면 대산중앙4길 60,경상남도 함안군 대산면 구혜리 222-3,함안군,055-580-2114,35.3524274,128.428217,2016-09-13
167,함안군 농업기술센터,건물 내,경상남도,함안군,편의시설,LGU+,Public WiFi Free,2014-12-1,경상남도 함안군 가야읍 함안대로 755,경상남도 함안군 가야읍 산서리 684-513,함안군,055-580-2114,35.293065,128.3985135,2016-09-13
168,함안노인복지회관,건물 내,경상남도,함안군,편의시설,LGU+,Public WiFi Free,2014-12-1,경상남도 함안군 가야읍 중앙남길 67,경상남도 함안군 가야읍 말산리 100,함안군,055-580-2114,35.2757186,128.410266,2016-09-13
169,군립칠원도서관,건물 내,경상남도,함안군,편의시설,KT,chilwon lib,2012-5-1,경상남도 함안군 칠원읍 원서로 56,경상남도 함안군 칠원읍 용산리 146,함안군,055-580-3641,35.3049739,128.5154683,2016-09-13
170,입암면사무소,사무실,경상북도,영양군,관공서,SKT,Public WiFi Free,2015-11-1,경상북도 영양군 입암면 조기리길 10,경상북도 영양군 입암면 신구리 481-3,경상북도 영양군청,1599-0013,36.593274,129.0903,2015-09-16
171,화남면 보건지소,대기실,경상북도,상주시,관공서,LGU+,,2013-12-1,경상북도 상주시 화남면 영남제일로 4627,경상북도 상주시 화남면 평온리 162-8,경상북도 상주시청,054-537-7082,36.4476906,127.9060238,2015-09-30
172,화북면 보건지소,대기실,경상북도,상주시,관공서,LGU+,,2013-12-1,경상북도 상주시 화북면 문장로 1685,경상북도 상주시 화북면 용유리 350-20,경상북도 상주시청,054-537-7082,36.5593337,127.9204549,2015-09-30
173,상주 행복재활원,1층거실,경상북도,상주시,서민·복지시설,KT,,2013-12-1,경상북도 상주시 개운1길 16-7,경상북도 상주시 개운동 29-4,경상북도 상주시청,054-537-7082,36.4019912,128.1503589,2015-09-30
174,상주 행복재활원,2층거실,경상북도,상주시,서민·복지시설,KT,,2013-12-1,경상북도 상주시 개운1길 16-7,경상북도 상주시 개운동 29-4,경상북도 상주시청,054-537-7082,36.4019912,128.1503589,2015-09-30
175,상주 행복재활원,강의실,경상북도,상주시,서민·복지시설,KT,,2013-12-1,경상북도 상주시 개운1길 16-7,경상북도 상주시 개운동 29-4,경상북도 상주시청,054-537-7082,36.4019912,128.1503589,2015-09-30
176,상주보육원,2층거실,경상북도,상주시,서민·복지시설,KT,,2013-12-1,경상북도 상주시 낙동면 영남제일로 1038-9,경상북도 상주시 낙동면 성동리 35,경상북도 상주시청,054-537-7082,36.4117055,128.2234121,2015-09-30
177,상주보육원,체육관,경상북도,상주시,서민·복지시설,KT,,2013-12-1,경상북도 상주시 낙동면 영남제일로 1038-9,경상북도 상주시 낙동면 성동리 35,경상북도 상주시청,054-537-7082,36.4117055,128.2234121,2015-09-30
178,상주 수화통역센터,2층 사무실,경상북도,상주시,서민·복지시설,KT,,2013-12-1,경상북도 상주시 상서문로 52 (남성동),경상북도 상주시 남성동 31-6,경상북도 상주시청,054-537-7082,36.4145302,128.1562221,2015-09-30
179,천봉산요양원,상담실,경상북도,상주시,서민·복지시설,KT,,2013-12-1,경상북도 상주시 만산8길 70,경상북도 상주시 만산동 17,경상북도 상주시청,054-537-7082,36.444256,128.1496424,2015-09-30
180,천봉산요양원,2층복도,경상북도,상주시,서민·복지시설,KT,,2013-12-1,경상북도 상주시 만산8길 70,경상북도 상주시 만산동 17,경상북도 상주시청,054-537-7082,36.444256,128.1496424,2015-09-30
181,상주 장애인종합복지관,1층 화장실 앞(복도),경상북도,상주시,서민·복지시설,KT,,2013-12-1,경상북도 상주시 만산8길 11,경상북도 상주시 만산동 60-2,경상북도 상주시청,054-537-7082,36.4421594,128.1548847,2015-09-30
182,상주 장애인종합복지관,2층 화장실 앞(복도),경상북도,상주시,서민·복지시설,KT,,2013-12-1,경상북도 상주시 만산8길 11,경상북도 상주시 만산동 60-2,경상북도 상주시청,054-537-7082,36.4421594,128.1548847,2015-09-30
183,상주 장애인종합복지관,3층 화장실 앞(복도),경상북도,상주시,서민·복지시설,KT,,2013-12-1,경상북도 상주시 만산8길 11,경상북도 상주시 만산동 60-2,경상북도 상주시청,054-537-7082,36.4421594,128.1548847,2015-09-30
184,온누리 노인복지센터,1층 교육장,경상북도,상주시,서민·복지시설,KT,,2013-12-1,경상북도 상주시 경상대로 3075,경상북도 상주시 무양동 1-162,경상북도 상주시청,054-537-7082,36.4213756,128.1502187,2015-09-30
185,상주 시니어클럽,2층 사무실,경상북도,상주시,서민·복지시설,KT,,2013-12-1,경상북도 상주시 삼백로 156,경상북도 상주시 서성동 60-11,경상북도 상주시청,054-537-7082,36.4184857,128.1605911,2015-09-30
186,상주시 중증장애인자립지원센터,1층복도,경상북도,상주시,서민·복지시설,KT,,2013-12-1,경상북도 상주시 왕산로 42-19,경상북도 상주시 신봉동 164-2,경상북도 상주시청,054-537-7082,36.4071106,128.1622544,2015-09-30
187,상주시 중증장애인자립지원센터,주간이용실안 복도,경상북도,상주시,서민·복지시설,KT,,2013-12-1,경상북도 상주시 왕산로 42-19,경상북도 상주시 신봉동 164-2,경상북도 상주시청,054-537-7082,36.4071106,128.1622544,2015-09-30
188,공검면 보건지소,1층 로비,경상북도,상주시,관공서,SKT,,2013-12-1,경상북도 상주시 공검면 양정2길 17-6,경상북도 상주시 공검면 양정리 23-1,경상북도 상주시청,054-537-7082,36.5105137,128.1594375,2015-09-30
189,내서면 보건지소,1층 사무실,경상북도,상주시,관공서,SKT,,2013-12-1,경상북도 상주시 내서면 신촌2길 10-5,경상북도 상주시 내서면 신촌리 51-6,경상북도 상주시청,054-537-7082,36.412255,128.0669808,2015-09-30
190,모서면 보건지소,1층 로비,경상북도,상주시,관공서,SKT,,2013-12-1,경상북도 상주시 모서면 삼포3길 24,경상북도 상주시 모서면 삼포리 243,경상북도 상주시청,054-537-7082,36.3416306,127.9616135,2015-09-30
191,상주시 장애인 심부름센터,1층 사무실,경상북도,상주시,편의시설,SKT,,2013-12-1,경상북도 상주시 삼백로 185-7,경상북도 상주시 복룡동 461-2,경상북도 상주시청,054-537-7082,36.4191489,128.1638954,2015-09-30
192,사벌면 보건지소,1층 로비,경상북도,상주시,관공서,SKT,,2013-12-1,경상북도 상주시 사벌면 덕담1길 17,경상북도 상주시 사벌면 덕담리 1053-1,경상북도 상주시청,054-537-7082,36.4651251,128.2069556,2015-09-30
193,은척면 보건지소,1층 로비,경상북도,상주시,관공서,SKT,,2013-12-1,경상북도 상주시 은척면 봉림길 2,경상북도 상주시 은척면 봉중리 325-1,경상북도 상주시청,054-537-7082,36.5316721,128.0719878,2015-09-30
194,송강재래시장,시장 내,대전광역시,유성구,기타,LGU+,,2014-1-1,,대전광역시 유성구 송강동 49-10,대전광역시 유성구청,042-611-2183,36.4351311,127.3866591,2016-07-28
195,남원동 주민센터,민원실,경상북도,상주시,관공서,LGU+,,2014-12-1,경상북도 상주시 중앙로 132,경상북도 상주시 낙양동 11-3,경상북도 상주시청,054-537-7082,36.4155304,128.152584,2015-09-30
196,북문동 주민센터,민원실,경상북도,상주시,관공서,LGU+,,2014-12-1,경상북도 상주시 북천로 63,경상북도 상주시 만산동 677-30,경상북도 상주시청,054-537-7082,36.4289219,128.1578273,2015-09-30
197,계림동 주민센터,민원실,경상북도,상주시,관공서,LGU+,,2014-12-1,경상북도 상주시 냉림1길 50,경상북도 상주시 냉림동 705-19,경상북도 상주시청,054-537-7082,36.422093,128.164288,2015-09-30
198,동문동 주민센터,민원실,경상북도,상주시,관공서,LGU+,,2014-12-1,경상북도 상주시 복룡2길 23,경상북도 상주시 복룡동 288-3,경상북도 상주시청,054-537-7082,36.417306,128.1691306,2015-09-30
199,동성동 주민센터,민원실,경상북도,상주시,관공서,LGU+,,2014-12-1,경상북도 상주시 성동새싹길 42,경상북도 상주시 성동동 120-1,경상북도 상주시청,054-537-7082,36.4152715,128.1697657,2015-09-30
200,낙동 보건지소,접수실,경상북도,상주시,관공서,KT,,2014-12-1,경상북도 상주시 낙동면 상촌4길 80-3,경상북도 상주시 상촌리 586-1,경상북도 상주시청,054-537-7082,36.3748549,128.2491366,2015-09-30
201,낙동 보건지소,물리치료실,경상북도,상주시,관공서,KT,,2014-12-1,경상북도 상주시 낙동면 상촌4길 80-3,경상북도 상주시 상촌리 586-1,경상북도 상주시청,054-537-7082,36.3748549,128.2491366,2015-09-30
202,모동 보건지소,접수실,경상북도,상주시,관공서,KT,,2014-12-1,경상북도 상주시 모동면 중화로 587,경상북도 상주시 모동면 금천리 5-1,경상북도 상주시청,054-537-7082,36.3170406,127.9610001,2015-09-30
203,모동 보건지소,한방진료실,경상북도,상주시,관공서,KT,,2014-12-1,경상북도 상주시 모동면 중화로 587,경상북도 상주시 모동면 금천리 5-1,경상북도 상주시청,054-537-7082,36.3170406,127.9610001,2015-09-30
204,상주시청,민원실,경상북도,상주시,관공서,KT,,2014-12-1,경상북도 상주시 상산로 223,경상북도 상주시 남성동 140-3,경상북도 상주시청,054-537-7082,36.4108279,128.1590518,2015-09-30
205,상주시청,로비,경상북도,상주시,관공서,KT,,2014-12-1,경상북도 상주시 상산로 223,경상북도 상주시 남성동 140-3,경상북도 상주시청,054-537-7082,36.4108279,128.1590518,2015-09-30
206,신흥동 주민센터,1층 민원실,경상북도,상주시,관공서,KT,,2014-12-1,경상북도 상주시상산로 141,경상북도 상주시신봉동 174-6,경상북도 상주시청,054-537-7082,36.403666,128.1599585,2015-09-30
207,신흥동 주민센터,2층 민원실,경상북도,상주시,관공서,KT,,2014-12-1,경상북도 상주시상산로 141,경상북도 상주시신봉동 174-6,경상북도 상주시청,054-537-7082,36.403666,128.1599585,2015-09-30
208,부안군청,민원실,전라북도,부안군,관공서,KT,NESPOT,2016-8-1,전라북도 부안군 부안읍 당산로 91,전라북도 부안군 부안읍 동중리 222-1,전라북도 부안군청,063-580-4758,35.7317814,126.7331643,2016-09-30
209,부안읍사무소,민원실,전라북도,부안군,관공서,KT,public WIFI Free,2016-8-1,전라북도 부안군 부안읍 석정로 182,전라북도 부안군 부안읍 동중리 123-2,전라북도 부안군 부안읍사무소,063-580-3503,35.7295433,126.7366617,2016-09-30
210,동진면사무소,민원실,전라북도,부안군,관공서,KT,public WIFI Free,2016-8-1,전라북도 부안군 동진면 동진로 89,전라북도 부안군 동진면 봉황리 354-3,전라북도 부안군 동진면사무소,063-580-3575,35.7495563,126.7388191,2016-09-30
211,행안면사무소,민원실,전라북도,부안군,관공서,KT,ollehWIFI,2016-8-1,전라북도 부안군 행안면 번영로 33,전라북도 부안군 행안면 신기리 33-1,전라북도 부안군 행안면사무소,063-580-3584,35.7261699,126.7239045,2016-09-30
212,보안면사무소,민원실,전라북도,부안군,관공서,KT,public WIFI Free,2016-8-1,전라북도 부안군 보안면 영전길 19-29,전라북도 부안군 보안면 영전리 390-2,전라북도 부안군 보안면사무소,063-580-3623,35.6121272,126.6713013,2016-09-30
213,변산면사무소,민원실,전라북도,부안군,관공서,KT,byunsan_WIFI,2016-8-1,전라북도 부안군 변산면 지서로 77-1,전라북도 부안군 변산면 지서리 382-2,전라북도 부안군 변산면사무소,063-580-3642,35.6635353,126.5284526,2016-09-30
214,진서면사무소,민원실,전라북도,부안군,관공서,KT,jinseomyeon,2016-8-1,전라북도 부안군 진서면 청자로 926,전라북도 부안군 진서면 곰소리 646,전라북도 부안군 진서면사무소,063-580-3663,35.587629,126.6054194,2016-09-30
215,백산면사무소,민원실,전라북도,부안군,관공서,KT,public WIFI Free,2016-8-1,전라북도 부안군 백산면 백산로 335,전라북도 부안군 백산면 덕신리 148-2,전라북도 부안군 백산면사무소,063-580-3682,35.7042848,126.7870935,2016-09-30
216,하서면사무소,민원실,전라북도,부안군,관공서,KT,ollehWIFI,2016-8-1,전라북도 부안군 하서면 하서길 28-5,전라북도 부안군 하서면 언독리 515-1,전라북도 부안군 하서면사무소,063-580-3722,35.7153369,126.6620774,2016-09-30
217,줄포면사무소,민원실,전라북도,부안군,관공서,KT,Julpo_WIFI,2016-8-1,전라북도 부안군 줄포면 줄포4길 8,전라북도 부안군 줄포면 줄포리 640-1,전라북도 부안군 줄포면사무소,063-580-3742,35.5902965,126.6776069,2016-09-30
218,농업기술센터,민원실,전라북도,부안군,관공서,KT,NongUp,2016-8-1,전라북도 부안군 행안면 변산로 16,전라북도 부안군 행안면 역리 234,전라북도 부안군 농업기술센터,063-580-3823,35.7297179,126.7193327,2016-09-30
219,함주공원,공원 및 스포츠타운,경상남도,함안군,편의시설,KT,HAMAN_MESH,2011-3-1,경상남도 함안군 가야읍 함안대로 619-1,경상남도 함안군 가야읍 도항리 249-1,함안군,055-580-2114,35.283282,128.4012381,2016-09-13
220,대구장애인종합복지관,휴게실,대구광역시,수성구,서민·복지시설,LGU+,,2013-12-1,대구광역시 수성구 파동로51길 26-17(파동),대구광역시 수성구 파동 1-1,대구광역시 수성구청,053-666-2474,35.826319,128.60706,2015-09-23
221,애활원,휴게실,대구광역시,수성구,서민·복지시설,LGU+,,2013-12-1,대구광역시 수성구 파동로51길 74(파동),대구광역시 수성구 파동 13-5,대구광역시 수성구청,053-666-2474,35.823076,128.608629,2015-09-23
222,황금시장,시장 입구,대구광역시,수성구,서민·복지시설,LGU+,,2013-12-1,대구광역시 수성구 희망로 201(황금동),대구광역시 수성구 황금2동 764,대구광역시 수성구청,053-666-2474,35.846844,128.620966,2015-09-23
223,노인종합복지회관,휴게실,대구광역시,수성구,서민·복지시설,LGU+,,2013-12-1,대구광역시 수성구 청수로35길 47(황금동),대구광역시 수성구 황금동 478-4,대구광역시 수성구청,053-666-2474,35.841452,128.629901,2015-09-23
224,SOS아동보호센터,휴게실,대구광역시,수성구,서민·복지시설,KT,,2013-12-1,대구광역시 수성구 무열로 171(만촌동),대구광역시 수성구 만촌1동 636-4,대구광역시 수성구청,053-666-2474,35.87346,128.646511,2015-09-23
225,수성구청 별관,민원실,대구광역시,수성구,관공서,KT,,2013-12-1,대구광역시 수성구 달구벌대로 2450(범어동),대구광역시 수성구 범어동 238-3,대구광역시 수성구청,053-666-2474,35.858376,128.630511,2015-09-23
226,수성구청 본관,민원실,대구광역시,수성구,관공서,KT,,2013-12-1,대구광역시 수성구 달구벌대로 2450(범어동),대구광역시 수성구 범어동 238-3,대구광역시 수성구청,053-666-2474,35.858376,128.630511,2015-09-23
227,성림아동원,휴게실,대구광역시,수성구,서민·복지시설,KT,,2013-12-1,대구광역시 수성구 성동로 74-16(사월동),대구광역시 수성구 사월동 9,대구광역시 수성구청,053-666-2474,35.842884,128.724548,2015-09-23
228,인제요양원,휴게실,대구광역시,수성구,서민·복지시설,KT,,2013-12-1,대구광역시 수성구 신천동로84길 21(수성동4가),대구광역시 수성구 수성동4가 1225-2,대구광역시 수성구청,053-666-2474,35.86154,128.611204,2015-09-23
229,애망요양원,휴게실,대구광역시,수성구,서민·복지시설,KT,,2013-12-1,대구광역시 수성구 파동로51길 56(파동),대구광역시 수성구 파동 18,대구광역시 수성구청,053-666-2474,35.816619,128.614577,2015-09-23
230,수성구보건소,민원실,대구광역시,수성구,서민·복지시설,SKT,,2013-12-1,대구광역시 수성구 수성로 213(중동),대구광역시 수성구 중동 266-5,대구광역시 수성구청,053-666-2474,35.844606,128.61225,2015-09-23
231,문화체육시설사업소,민원실,전라북도,부안군,지역문화시설,KT,public WIFI Free,2016-8-1,전라북도 부안군 예술회관길 11,전라북도 부안군 부안읍 서외리 455-41,전라북도 부안군 문화체육시설사업소,063-580-3924,35.7242295,126.7261627,2016-09-30
232,부안군민체육센터,민원실,전라북도,부안군,지역문화시설,KT,ollehWIFI,2016-8-1,전라북도 부안군 부안읍 석정로 165,전라북도 부안군 부안읍 동중리 99-8,전라북도 부안군 부안군민체육센터,063-580-4758,35.7309128,126.7372204,2016-09-30
233,스포츠파크(실내체육관),민원실,전라북도,부안군,지역문화시설,KT,Sport_Park,2016-8-1,전라북도 부안군 행안면 체육공원길 31,전라북도 부안군 행안면 진동리 933,전라북도 부안군 스포츠파크(실내체육관),063-580-4758,35.7005537,126.7237769,2016-09-30
234,부안누에타운,민원실,전라북도,부안군,관광,KT,Nve_AP10,2016-8-1,전라북도 부안군 변산면 참뽕로 434-20,전라북도 부안군 주산면 돈계리 255-1,전라북도 부안군 부안누에타운,063-580-4334,35.683081,126.7054312,2016-09-30
235,부안청자박물관,민원실,전라북도,부안군,관광,KT,ChungJa_AP,2016-8-1,전라북도 부안군 보안면 청자로 1493,전라북도 부안군 보안면 유천리 798-4,전라북도 부안군 부안청자박물관,063-580-3955,35.6116388,126.6518846,2016-09-30
236,무형문화재종합전수관,민원실,전라북도,부안군,지역문화시설,KT,munhwajae,2016-8-1,전라북도 부안군 보안면 반계로 11,전라북도 부안군 보안면 우동리 776-15,전라북도 부안군 무형문화재종합전수관,063-580-4758,35.6124349,126.6305763,2016-09-30
237,부안군립도서관,민원실,전라북도,부안군,교육시설,KT,Buan 2-1,2016-8-1,전라북도 부안군 부안읍 매창로 125,전라북도 부안군 부안읍 봉덕리 643-3,전라북도 부안군 부안군립도서관,063-580-3947,35.7192705,126.732465,2016-09-30
238,조포보건진료소,민원실,전라북도,부안군,관공서,KT,NESPOT,2016-8-1,전라북도 부안군 계화면 새포로 747,전라북도 부안군 계화면 양산리 1908-1,전라북도 부안군 조포보건진료소,063-582-1920,35.7790154,126.7156413,2016-09-30
239,대수보건진료소,민원실,전라북도,부안군,관공서,KT,kyeokpo Health_ wifi,2016-8-1,전라북도 부안군 백산면 대소수안길 11,전라북도 부안군 백산면 대수리 498-1,전라북도 부안군 대수보건진료소,063-580-2096,35.6859327,126.8150011,2016-09-30
240,영양전통시장,관리사무실,경상북도,영양군,기타,SKT,Public WiFi Free,2015-11-1,경상북도 영양군 영양읍 시장5길 13,경상북도 영양군 영양읍 서부리 288-3,경상북도 영양군청,1599-0011,36.6644745,129.1158022,2015-09-16
241,영양읍사무소,사무실,경상북도,영양군,관공서,SKT,Public WiFi Free,2015-11-1,경상북도 영양군 영양읍 군청길 53,경상북도 영양군 영양읍 동부리 550-10,경상북도 영양군청,1599-0012,36.6670778,129.1141674,2015-09-16
242,보건소 고산분소,민원실,대구광역시,수성구,서민·복지시설,LGU+,,2014-12-1,대구광역시 수성구 달구벌대로 3166-1(노변동),대구광역시 수성구 노변동 26-4,대구광역시 수성구청,053-666-2474,35.840969,128.702949,2015-09-23
243,수성현대시장,시장 입구,대구광역시,수성구,서민·복지시설,LGU+,,2014-12-1,대구광역시 수성구 신천동로 280(수성동1가),대구광역시 수성구 수성동1가 649-76,대구광역시 수성구청,053-666-2474,35.849512,128.609412,2015-09-23
244,고산1동주민센터,민원실,대구광역시,수성구,관공서,KT,,2014-12-1,대구광역시 수성구 달구벌대로 3260-2(신매동),대구광역시 수성구 신매동 193-1,대구광역시 수성구청,053-666-2474,35.837132,128.712423,2015-09-23
245,고산3동주민센터,민원실,대구광역시,수성구,관공서,KT,,2014-12-1,대구광역시 수성구 고산로 152(매호동),대구광역시 수성구 매호동 1325-6,대구광역시 수성구청,053-666-2474,35.844048,128.706613,2015-09-23
246,상동주민센터,민원실,대구광역시,수성구,관공서,SKT,,2014-12-1,대구광역시 수성구 들안로9길 56(상동),대구광역시 수성구 상동 400,대구광역시 수성구청,053-666-2474,35.832243,128.615606,2015-09-23
247,고산2동주민센터,민원실,대구광역시,수성구,관공서,SKT,,2014-12-1,대구광역시 수성구 달구벌대로 3091(시지동),대구광역시 수성구 시지동 140-3,대구광역시 수성구청,053-666-2474,35.84385,128.695266,2015-09-23
248,지산1동주민센터,민원실,대구광역시,수성구,관공서,SKT,,2014-12-1,대구광역시 수성구 지범로21길 16(지산동),대구광역시 수성구 지산동 1280-2,대구광역시 수성구청,053-666-2474,35.825064,128.637198,2015-09-23
249,황금1동주민센터,민원실,대구광역시,수성구,관공서,SKT,,2014-12-1,대구광역시 수성구 청호로57길 10(황금동),대구광역시 수성구 황금동 93-5,대구광역시 수성구청,053-666-2474,35.844058,128.638246,2015-09-23
250,다문화가족센터,센터 내 1층,대전광역시,유성구,서민·복지시설,LGU+,,2014-1-1,,대전광역시 유성구 관평동 767,대전광역시 유성구청,042-611-2183,36.4264701,127.3944401,2016-07-28
251,동화울 수변공원,센터 내 1층,대전광역시,유성구,지역문화시설,LGU+,,2014-1-1,,대전광역시 유성구 관평동 771,대전광역시 유성구청,042-611-2183,36.4246031,127.3942911,2016-07-28
252,노은농수산물도매시장,민원실,대전광역시,유성구,기타,LGU+,,2014-1-1,,대전광역시 유성구 노은동 566,대전광역시 유성구청,042-611-2183,36.3651201,127.3202621,2016-07-28
253,구즉보건지소,민원실,대전광역시,유성구,관공서,LGU+,,2014-1-1,,대전광역시 유성구 봉산동 813-1,대전광역시 유성구청,042-611-2183,36.4404001,127.3833951,2016-07-28
254,성세병원,접수실,대전광역시,유성구,기타,KT,,2014-1-1,,대전광역시 유성구 봉명동 629-5,대전광역시 유성구청,042-611-2183,36.3577031,127.3452621,2016-07-28
255,청기면사무소,사무실,경상북도,영양군,관공서,SKT,Public WiFi Free,2015-11-1,경상북도 영양군 청기면 청기1길 9-6,경상북도 영양군 청기면 청기리 791-1,경상북도 영양군청,1599-0014,36.6611773,129.062285,2015-09-16
256,일월면사무소,사무실,경상북도,영양군,관공서,SKT,Public WiFi Free,2015-11-1,경상북도 영양군 일월면 영양로 2419,경상북도 영양군 일월면 도계리 653-2,경상북도 영양군청,1599-0015,36.7024131,129.1287501,2015-09-16
257,수비면사무소,사무실,경상북도,영양군,관공서,SKT,Public WiFi Free,2015-11-1,경상북도 영양군 수비면 한티로 503,경상북도 영양군 수비면 발리리 503-1,경상북도 영양군청,1599-0016,36.765225,129.202563,2015-09-16
258,석보면사무소,사무실,경상북도,영양군,관공서,SKT,Public WiFi Free,2015-11-1,경상북도 영양군 석보면 원리3길 19,경상북도 영양군 석보면 원리리 292,경상북도 영양군청,1599-0017,36.558083,129.12455,2015-09-16
259,일월보건지소,사무실,경상북도,영양군,관공서,SKT,Public WiFi Free,2015-11-1,경상북도 영양군 일월면 영양로 2401,경상북도 영양군 일월면 도계리 667-17,경상북도 영양군청,1599-0018,36.7024649,129.1264989,2015-09-16
260,영양군자연생태공원관리사업소,펜션,경상북도,영양군,기타,KT,,2014-1-1,경상북도 영양군 수비면 반딧불이로 227,,경상북도 영양군청,054-680-5312,36.8383947,129.2694269,2015-07-29
261,선운산유스호스텔,1 2 3층,전라북도,고창군,관광,LGU+,Public Wifi FREE,2013-11-1,전라북도 고창군 아산면 선운사로 158-36,전라북도 고창군 아산면 삼인리 334,선운산유스호스텔,063-560-2338,35.503203,126.583037,2016-10-26
262,군민복지회관,1층 로비,전라북도,고창군,서민·복지시설,LGU+,Public Wifi FREE,2014-11-1,전라북도 고창군 고창읍  월곡14길 19,전라북도 고창군 고창읍 월곡리 620,군민복지회관,063-560-8087,35.437477,126.713096,2016-10-26
263,고수면사무소,민원실,전라북도,고창군,관공서,LGU+,Public Wifi FREE,2014-11-1,전라북도 고창군 고수면 고인돌대로 1412,전라북도 고창군 고수면 봉산리 359-5,고수면사무소,063-560-8151,35.409887,126.678707,2016-10-26
264,아산면사무소,민원실,전라북도,고창군,관공서,LGU+,Public Wifi FREE,2014-11-1,전라북도 고창군 아산면 녹두로 786,전라북도 고창군 아산면 하갑리 190-2,아산면사무소,063-560-8181,35.439762,126.634935,2016-10-26
265,무장면사무소,민원실,전라북도,고창군,관공서,LGU+,Public Wifi FREE,2014-11-1,전라북도 고창군 무장면 녹두로 8,전라북도 고창군 무장면 성내리 75,무장면사무소,063-560-8212,35.419244,126.560852,2016-10-26
266,강진군 노인복지관,강진군 노인복지관,전라남도,강진군,복지시설,KT,Public WiFi Free,2014-7-1,전라남도 강진군 강진읍 향교로 115,전라남도 강진군 강진읍 향교로 115,전라남도 강진군,061-430-3300,34.6488964,126.7551315,2016-09-29
267,유성구 노인복지관,센터 내 1층,대전광역시,유성구,서민·복지시설,LGU+,,2014-1-1,,대전광역시 유성구 신성동 372번지,대전광역시 유성구청,042-611-2183,36.3847431,127.3439811,2016-07-28
268,대전시립 장애인종합복지관,센터 내 1층,대전광역시,유성구,서민·복지시설,LGU+,,2014-1-1,,대전광역시 유성구 용계동 319-1,대전광역시 유성구청,042-611-2183,36.3213721,127.3210561,2016-07-28
269,성세재활자립원,센터 내 1층,대전광역시,유성구,서민·복지시설,LGU+,,2014-1-1,,대전광역시 유성구 용계동 319-1,대전광역시 유성구청,042-611-2183,36.3213721,127.3210561,2016-07-28
270,성세시온의집,센터 내 1층,대전광역시,유성구,서민·복지시설,LGU+,,2014-1-1,,대전광역시 유성구 용계동 319-3,대전광역시 유성구청,042-611-2183,36.3218921,127.3224931,2016-07-28
271,진잠보건지소,민원실,대전광역시,유성구,관공서,LGU+,,2014-1-1,,대전광역시 유성구 원내동 90-12,대전광역시 유성구청,042-611-2183,36.3014021,127.3196651,2016-07-28
272,봉명꿈지역아동센터,센터 내 1층,대전광역시,유성구,서민·복지시설,LGU+,,2014-1-1,,대전광역시 유성구 봉명동 558-10,대전광역시 유성구청,042-611-2183,36.3503301,127.3397611,2016-07-28
273,사랑빛지역아동센터,센터 내 1층,대전광역시,유성구,서민·복지시설,LGU+,,2014-1-1,,대전광역시 유성구 전민동 360-14,대전광역시 유성구청,042-611-2183,36.3971781,127.4004921,2016-07-28
274,송강지역아동센터,센터 내 1층,대전광역시,유성구,서민·복지시설,LGU+,,2014-1-1,,대전광역시 유성구 송강동 49-4,대전광역시 유성구청,042-611-2183,36.4350411,127.3872471,2016-07-28
275,송강테크노지역아동센터,센터 내 1층,대전광역시,유성구,서민·복지시설,LGU+,,2014-1-1,,대전광역시 유성구 송강동 171,대전광역시 유성구청,042-611-2183,36.4320051,127.3809361,2016-07-28
276,중앙지역아동센터,센터 내 1층,대전광역시,유성구,서민·복지시설,LGU+,,2014-1-1,,대전광역시 유성구 신성동 150-12,대전광역시 유성구청,042-611-2183,36.3883111,127.3525671,2016-07-28
277,평생학습센터 분관,민원실,대전광역시,유성구,관공서,KT,,2014-1-1,,대전광역시 유성구 문지동 258-1,대전광역시 유성구청,042-611-2183,36.3952611,127.4052391,2016-07-28
278,유성시장_KT,시장 내,대전광역시,유성구,기타,KT,,2014-1-1,,대전광역시 유성구 장대동 191-7,대전광역시 유성구청,042-611-2183,36.3577191,127.3339441,2016-07-28
279,천양원,천양원 1층,대전광역시,유성구,서민·복지시설,KT,,2014-1-1,,대전광역시 유성구 장대동 233-3,대전광역시 유성구청,042-611-2183,36.3600351,127.3236171,2016-07-28
280,1318HappyZone그루터기,건물1층,대전광역시,유성구,서민·복지시설,KT,,2014-1-1,,대전광역시 유성구 구암동 590-5,대전광역시 유성구청,042-611-2183,36.3540281,127.3320861,2016-07-28
281,금성지역아동센터,센터 내 1층,대전광역시,유성구,서민·복지시설,KT,,2014-1-1,,대전광역시 유성구 신성동 253-22,대전광역시 유성구청,042-611-2183,36.3869161,127.3484941,2016-07-28
282,노은지역아동센터,센터 내 1층,대전광역시,유성구,서민·복지시설,KT,,2014-1-1,,대전광역시 유성구 노은동 499-7,대전광역시 유성구청,042-611-2183,36.3674621,127.3124991,2016-07-28
283,새중앙지역아동센터,센터 내 1층,대전광역시,유성구,서민·복지시설,KT,,2014-1-1,,대전광역시 유성구 장대동 171-4,대전광역시 유성구청,042-611-2183,36.3606761,127.3307341,2016-07-28
284,샬롬지역아동센터,센터 내 1층,대전광역시,유성구,서민·복지시설,KT,,2014-1-1,,대전광역시 유성구 지족동 849-4,대전광역시 유성구청,042-611-2183,36.3804211,127.3163991,2016-07-28
285,원내지역아동센터,센터 내 1층,대전광역시,유성구,서민·복지시설,KT,,2014-1-1,,대전광역시 유성구 원내동 343-18,대전광역시 유성구청,042-611-2183,36.2978191,127.3191431,2016-07-28
286,유성지역아동센터,센터 내 1층,대전광역시,유성구,서민·복지시설,KT,,2014-1-1,,대전광역시 유성구 구암동 544-24,대전광역시 유성구청,042-611-2183,36.3519621,127.3356121,2016-07-28
287,참사랑지역아동센터,센터 내 1층,대전광역시,유성구,서민·복지시설,KT,,2014-1-1,,대전광역시 유성구 원내동 225-7,대전광역시 유성구청,042-611-2183,36.2993501,127.3176261,2016-07-28
288,토기장이지역아동센터,센터 내 1층,대전광역시,유성구,서민·복지시설,KT,,2014-1-1,,대전광역시 유성구 송강동 186-5,대전광역시 유성구청,042-611-2183,36.4328381,127.3872011,2016-07-28
289,관평동 주민센터,민원실,대전광역시,유성구,관공서,SK,,2014-1-1,,대전광역시 유성구 관평동 905,대전광역시 유성구청,042-611-2183,36.4231431,127.3887811,2016-07-28
290,하늘꿈지역아동센터,센터 내 1층,대전광역시,유성구,서민·복지시설,KT,,2014-1-1,,대전광역시 유성구 원내동 337-1,대전광역시 유성구청,042-611-2183,36.2982391,127.3168261,2016-07-28
291,한사랑지역아동센터,센터 내 1층,대전광역시,유성구,서민·복지시설,KT,,2014-1-1,,대전광역시 유성구 봉산동 201-10,대전광역시 유성구청,042-611-2183,36.4377571,127.3877801,2016-07-28
292,호산나반석지역아동센터,센터 내 1층,대전광역시,유성구,서민·복지시설,KT,,2014-1-1,,대전광역시 유성구 반석동 633-2,대전광역시 유성구청,042-611-2183,36.3921811,127.3121061,2016-07-28
293,장대청소년문화의집,문화의집,대전광역시,유성구,서민·복지시설,KT,,2014-1-1,,대전광역시 유성구 장대동 282-15,대전광역시 유성구청,042-611-2183,36.3581251,127.3354681,2016-07-28
294,진잠동 주민센터,민원실,대전광역시,유성구,관공서,SK,,2014-1-1,,대전광역시 유성구 원내동 213-4,대전광역시 유성구청,042-611-2183,36.2997781,127.3164721,2016-07-28
295,온천1동 주민센터,민원실,대전광역시,유성구,관공서,SK,,2014-1-1,,대전광역시 유성구 봉명동 451,대전광역시 유성구청,042-611-2183,36.3531051,127.3389681,2016-07-28
296,온천2동 주민센터,민원실,대전광역시,유성구,관공서,SK,,2014-1-1,,대전광역시 유성구 장대동 40-2,대전광역시 유성구청,042-611-2183,36.3653121,127.3335781,2016-07-28
297,노은1동 주민센터,민원실,대전광역시,유성구,관공서,SK,,2014-1-1,,대전광역시 유성구 노은동 546,대전광역시 유성구청,042-611-2183,36.3673021,127.3185031,2016-07-28
298,노은2동 주민센터,민원실,대전광역시,유성구,관공서,SK,,2014-1-1,,대전광역시 유성구 하기동 411-1,대전광역시 유성구청,042-611-2183,36.3894361,127.3207811,2016-07-28
299,신성동 주민센터,민원실,대전광역시,유성구,관공서,SK,,2014-1-1,,대전광역시 유성구 하기동 18-6,대전광역시 유성구청,042-611-2183,36.3892401,127.3473751,2016-07-28
300,전민동 주민센터,민원실,대전광역시,유성구,관공서,SK,,2014-1-1,,대전광역시 유성구 문지동 247-1,대전광역시 유성구청,042-611-2183,36.3955971,127.4071821,2016-07-28
301,구즉동 주민센터,민원실,대전광역시,유성구,관공서,SK,,2014-1-1,,대전광역시 유성구 봉산동 294,대전광역시 유성구청,042-611-2183,36.4405091,127.3836611,2016-07-28
302,원신흥동 주민센터,민원실,대전광역시,유성구,관공서,SK,,2014-1-1,,대전광역시 유성구 원신흥동 491-14,대전광역시 유성구청,042-611-2183,36.3422825,127.3435478,2016-07-28
303,유성구 보건소,민원실,대전광역시,유성구,관공서,SK,,2014-1-1,,대전광역시 유성구 장대동 282-15,대전광역시 유성구청,042-611-2183,36.3581251,127.3354681,2016-07-28
304,구청 구민봉사실,민원실,대전광역시,유성구,관공서,SK,,2014-1-1,,대전광역시 유성구 대학로 211,대전광역시 유성구청,042-611-2183,36.3622522,127.3567227,2016-07-28
305,구청 세무과,민원실,대전광역시,유성구,관공서,SK,,2014-1-1,,대전광역시 유성구 대학로 211,대전광역시 유성구청,042-611-2183,36.3619066,127.3559073,2016-07-28
306,유림공원공연장,공연장,대전광역시,유성구,지역문화시설,SK,,2014-1-1,,대전광역시 유성구 봉명동 496-39,대전광역시 유성구청,042-611-2183,36.3606723,127.3582077,2016-07-28
307,전민동EXPO근린공원공연장,공연장,대전광역시,유성구,지역문화시설,SK,,2014-1-1,,대전광역시 유성구 전민동 467-3,대전광역시 유성구청,042-611-2183,36.3984811,127.4056371,2016-07-28
308,송강근린공원내공연장,공연장,대전광역시,유성구,지역문화시설,SK,,2014-1-1,,대전광역시 유성구 송강동 9번지,대전광역시 유성구청,042-611-2183,36.4355958,127.3844981,2016-07-28
309,인애자립생활관,생활관 1층,대전광역시,유성구,서민·복지시설,LGU+,,2014-1-1,,대전광역시 유성구 신성동 145-10,대전광역시 유성구청,042-611-2183,36.3894471,127.3525181,2016-07-28
310,노인보호전문기관,지하 1층,대전광역시,유성구,서민·복지시설,LGU+,,2014-1-1,,대전광역시 유성구 도룡동 383-18 부선빌딩 지하1층,대전광역시 유성구청,042-611-2183,36.3871231,127.3788991,2016-07-28
311,구암평생학습원,1층  복도,대전광역시,유성구,관공서,KT,,2014-1-1,,대전광역시 유성구 구암동 630-15,대전광역시 유성구청,042-611-2183,36.3493111,127.3303101,2016-07-28
312,노은농수산물도매시장,시장내 복도,대전광역시,유성구,편의시설,KT,,2014-1-1,,대전광역시 유성구 노은동 566,대전광역시 유성구청,042-611-2183,36.3651201,127.3202621,2016-07-28
313,유성구종합사회복지관,복지관내,대전광역시,유성구,지역문화시설,KT,,2014-1-1,,대전광역시 유성구 봉명동 451-5,대전광역시 유성구청,042-611-2183,36.3528881,127.3395741,2016-07-28
314,봉산3통경로당,경로당입구,대전광역시,유성구,서민·복지시설,KT,,2014-1-1,,대전광역시 유성구 봉산동 663,대전광역시 유성구청,042-611-2183,36.4468761,127.3818711,2016-07-28
315,족욕장,족욕장,대전광역시,유성구,관광,SK,,2014-1-1,,대전광역시 유성구 봉명동 574 도로,대전광역시 유성구청,042-611-2183,36.3551703,127.3442721,2016-07-28
316,유성시장_SK,시장 내,대전광역시,유성구,기타,SK,,2014-1-1,,대전광역시 유성구 장대동 191-7번지 일원,대전광역시 유성구청,042-611-2183,36.3577191,127.3339441,2016-07-28
317,유성시장_장터공연장,공연장,대전광역시,유성구,지역문화시설,SK,,2014-1-1,,대전광역시 유성구 장대동 279-4,대전광역시 유성구청,042-611-2183,36.3588941,127.3355631,2016-07-28
318,두드림공연장,공연장,대전광역시,유성구,지역문화시설,SK,,2014-1-1,,대전광역시 유성구 봉명동 574,대전광역시 유성구청,042-611-2183,36.3549371,127.3460531,2016-07-28
319,백운행복경로당,경로당입구,대전광역시,유성구,서민·복지시설,KT,,2014-1-1,,대전광역시 유성구 봉산동 792-3,대전광역시 유성구청,042-611-2183,36.4399971,127.3815941,2016-07-28
320,노은3동 주민센터,민원실,대전광역시,유성구,관공서,KT,,2014-1-1,,대전광역시 유성구 지족동 1024-2,대전광역시 유성구청,042-611-2183,36.3831771,127.3011671,2016-07-28
321,반석1통 경로당,경로당입구,대전광역시,유성구,서민·복지시설,KT,,2014-1-1,,대전광역시 유성구 반석동 463,대전광역시 유성구청,042-611-2183,36.3896491,127.2990841,2016-07-28
322,장대8통 경로당,경로당입구,대전광역시,유성구,서민·복지시설,KT,,2014-1-1,,대전광역시 유성구 장대동 220-19,대전광역시 유성구청,042-611-2183,36.3591321,127.3287081,2016-07-28
323,월드컵경기장,경기장,대전광역시,유성구,기타,KT,,2014-1-1,,대전광역시 유성구 노은동 270,대전광역시 유성구청,042-611-2183,36.3647931,127.3247551,2016-07-28
324,금성행복경로당,경로당입구,대전광역시,유성구,서민·복지시설,LG,,2014-1-1,,대전광역시 유성구 신성동 206,대전광역시 유성구청,042-611-2183,36.3871451,127.3484111,2016-07-28
325,노은역 광장(동편),광장  지하매장  지하철입구,대전광역시,유성구,기타,LG,,2014-1-1,,대전광역시 유성구 지족동 962,대전광역시 유성구청,042-611-2183,36.3748001,127.3224141,2016-07-28
326,어은동 경로당,경로당입구,대전광역시,유성구,서민·복지시설,LG,,2014-1-1,,대전광역시 유성구 어은동 108,대전광역시 유성구청,042-611-2183,36.3626301,127.3553581,2016-07-28
327,전민동 제1경로당,큰방  작은방,대전광역시,유성구,서민·복지시설,LG,,2014-1-1,,대전광역시 유성구 전민동 369-1,대전광역시 유성구청,042-611-2183,36.3977201,127.4032021,2016-07-28
328,전민동 제2경로당,방,대전광역시,유성구,서민·복지시설,LG,,2014-1-1,,대전광역시 유성구 전민동 346-6,대전광역시 유성구청,042-611-2183,36.3983121,127.4011331,2016-07-28
329,구즉체육관(1층 2층),1층   2층 천장,대전광역시,유성구,기타,LG,,2014-1-1,,대전광역시 유성구 송강동 9,대전광역시 유성구청,042-611-2183,36.4349801,127.3840941,2016-07-28
330,진잠체육관(1층 2층),1층   2층 천장,대전광역시,유성구,기타,LG,,2014-1-1,,대전광역시 유성구 원내동 358,대전광역시 유성구청,042-611-2183,36.2949841,127.3206111,2016-07-28
331,장대동공영주차장,주차장1층 천장,대전광역시,유성구,교통시설,LG,,2014-1-1,,대전광역시 유성구 장대동 263-4,대전광역시 유성구청,042-611-2183,36.3599631,127.3318461,2016-07-28
332,도안문화공원,공원,대전광역시,유성구,지역문화시설,SK,,2014-1-1,,대전 유성구 상대동 488,대전광역시 유성구청,042-611-2183,36.3367721,127.3334713,2016-07-28
333,대전시립박물관,박물관내,대전광역시,유성구,지역문화시설,SK,,2014-1-1,,대전 유성구 상대동 488,대전광역시 유성구청,042-611-2183,36.3362363,127.3349091,2016-07-28
334,대전시립박물관_별관,박물관내,대전광역시,유성구,지역문화시설,SK,,2014-1-1,,대전 유성구 상대동 488,대전광역시 유성구청,042-611-2183,36.3376537,127.3357673,2016-07-28
335,강진군청 민원실,강진군청 민원실,전라남도,강진군,관 공 서,KT,Public WiFi Free,2014-7-1,전라남도 강진군 강진읍 탐진로 111,전라남도 강진군 강진읍 탐진로 111,전라남도 강진군,061-430-3300,34.6420067,126.7498668,2016-09-29
336,강진 아트홀,강진 아트홀,전라남도,강진군,문화 관광,KT,Public WiFi Free,2014-7-1,전라남도 강진군 강진읍 영랑로 1길 9,전라남도 강진군 강진읍 영랑로 1길 9,전라남도 강진군,061-430-3300,34.6381696,126.7530254,2016-09-29
337,공음면사무소,민원실,전라북도,고창군,관공서,LGU+,Public Wifi FREE,2014-11-1,전라북도 고창군 공음면 공음길 35,전라북도 고창군 공음면 칠암리 556-2,공음면사무소,063-560-8242,35.377642,126.511352,2016-10-26
338,상하면사무소,민원실,전라북도,고창군,관공서,LGU+,Public Wifi FREE,2014-11-1,전라북도 고창군 상하면 상하로 84-11,전라북도 고창군 상하면 하장리 890,상하면사무소,063-560-8271,35.444468,126.495177,2016-10-26
339,해리면사무소,민원실,전라북도,고창군,관공서,LGU+,Public Wifi FREE,2014-11-1,전라북도 고창군 해리면 청해2길 38,전라북도 고창군 해리면 하련리 222,해리면사무소,063-560-8303,35.460752,126.539011,2016-10-26
340,성송면사무소,민원실,전라북도,고창군,관공서,LGU+,Public Wifi FREE,2014-11-1,전라북도 고창군 성송면 대성로 770,전라북도 고창군 성송면 판정리 52-15,성송면사무소,063-560-8331,35.364193,126.646602,2016-10-26
341,대산면사무소,민원실,전라북도,고창군,관공서,LGU+,Public Wifi FREE,2014-11-1,전라북도 고창군 대산면 대성로 273,전라북도 고창군 대산면 매산리 1072,대산면사무소,063-560-8361,35.341186,126.603476,2016-10-26
342,심원면사무소,민원실,전라북도,고창군,관공서,LGU+,Public Wifi FREE,2014-11-1,전라북도 고창군 심원면 심원로 211,전라북도 고창군 심원면 월산리 779-1,심원면사무소,063-560-8392,35.524206,126.551041,2016-10-26
343,흥덕면사무소,민원실,전라북도,고창군,관공서,LGU+,Public Wifi FREE,2014-11-1,전라북도 고창군 흥덕면 문화2길 27,전라북도 고창군 흥덕면 동사리 437-71,흥덕면사무소,063-560-8424,35.517696,126.703509,2016-10-26
344,성내면사무소,민원실,전라북도,고창군,관공서,LGU+,Public Wifi FREE,2014-11-1,전라북도 고창군 성내면 시기2길 6,전라북도 고창군 성내면 양계리 472,성내면사무소,063-560-8452,35.537965,126.743416,2016-10-26
345,신림면사무소,민원실,전라북도,고창군,관공서,LGU+,Public Wifi FREE,2014-11-1,전라북도 고창군 신림면 신림로 136,전라북도 고창군 신림면 무림리 309-10,신림면사무소,063-560-8481,35.489103,126.712361,2016-10-26
346,부안면사무소,민원실,전라북도,고창군,관공서,LGU+,Public Wifi FREE,2014-11-1,전라북도 고창군 부안면 인촌로 1246,전라북도 고창군 부안면 중흥리 167,부안면사무소,063-560-8512,35.514252,126.674151,2016-10-26
347,흥덕공용버스터미널,대합실,전라북도,고창군,교통시설,LGU+,Public Wifi FREE,2014-11-1,전라북도 고창군 흥덕면 선운대로 3722,전라북도 고창군 흥덕면 흥덕리 556,흥덕공용버스터미널,063-560-2338,35.5186,126.699385,2016-10-26
348,효성2동,민원실,인천광역시,계양구,관공서,LGU+,Public Free,2014-1-1,인천광역시 계양구 아나지로 162,,인천광역시 계양구청,032-450-6781,37.525063,126.709802,2016-06-07
349,종합사회복지회관,1 2층,전라북도,고창군,서민·복지시설,KT,Public Wifi FREE,2013-11-1,전라북도 고창군 고창읍  전봉준로 88-15,전라북도 고창군 고창읍 율계리 114-4,종합사회복지관,063-560-2292,35.444683,126.683398,2016-10-26
350,고창군다문화가족지원센터,1층 로비,전라북도,고창군,서민·복지시설,KT,Public Wifi FREE,2013-11-1,전라북도 고창군 고창읍  성산로 57 (1층),전라북도 고창군 고창읍 교촌리 233-5,고창군다문화가족지원센터,063-560-2288,35.438446,126.699036,2016-10-26
351,민원봉사과,민원실,전라북도,고창군,관공서,KT,Public Wifi FREE,2013-11-1,전라북도 고창군 고창읍 중앙로 245,전라북도 고창군 고창읍 교촌리 275-3,민원봉사과,063-560-2381,35.435758,126.701884,2016-10-26
352,고창읍사무소,민원실,전라북도,고창군,관공서,KT,Public Wifi FREE,2013-11-1,전라북도 고창군 고창읍 모양성로 26,전라북도 고창군 고창읍 교촌리 283-3,고창읍사무소,063-560-8112,35.434404,126.703134,2016-10-26
353,고창공용버스터미널,대합실,전라북도,고창군,교통시설,KT,Public Wifi FREE,2013-11-1,전라북도 고창군 고창읍 중앙로 191,전라북도 고창군 고창읍 읍내리 629,고창공용버스터미널,063-560-2338,35.435705,126.696421,2016-10-26
354,고창전통(상설)시장,시장 사거리 주변,전라북도,고창군,서민·복지시설,LGU+,Public Wifi FREE,2013-11-1,전라북도 고창군 고창읍 동리로 62-11,전라북도 고창군 고창읍 읍내리 367,고창전통(상설)시장,063-560-2338,35.432551,126.698597,2016-10-26
355,여성회관,1층 로비,전라북도,고창군,서민·복지시설,LGU+,Public Wifi FREE,2014-11-1,전라북도 고창군 고창읍 월곡공원1길 36,전라북도 고창군 고창읍 월곡리 619,여성회관,063-560-2338,35.438084,126.712789,2016-10-26
356,고창고인돌(상)휴게소,휴게소,전라북도,고창군,교통시설,KT,Public Wifi FREE,2013-11-1,전라북도 고창군 신림면 서해안고속도로 80-1,전라북도 고창군 신림면 벽송리 598-5,고창고인돌(상)휴게소,063-560-2338,35.462414,126.674039,2016-10-26
357,고창고인돌(하)휴게소,휴게소,전라북도,고창군,교통시설,KT,Public Wifi FREE,2013-11-1,전라북도 고창군 신림면 서해안고속도로 81,전라북도 고창군 신림면 벽송리 557-10,고창고인돌(하)휴게소,063-560-2338,35.467289,126.673256,2016-10-26
358,고창군청소년수련관,1층 로비,전라북도,고창군,지역문화시설,LGU+,Public Wifi FREE,2013-11-1,전라북도 고창군 고창읍 운동장길 36,전라북도 고창군 고창읍 월암리 316,고창군청소년수련관,063-560-2338,35.432568,126.724618,2016-10-26
359,청소년문화센터,1층 로비,전라북도,고창군,서민·복지시설,LGU+,Public Wifi FREE,2014-11-1,전라북도 고창군 고창읍 중앙로 292,전라북도 고창군 고창읍 교촌리 55-2,청소년문화센터,063-560-2338,35.435371,126.706893,2016-10-26
360,흥덕청소년문화의집,1 2층,전라북도,고창군,서민·복지시설,LGU+,Public Wifi FREE,2013-11-1,전라북도 고창군 흥덕면 선운대로 3774,전라북도 고창군 흥덕면 흥덕리 63,흥덕청소년문화의집,063-560-2338,35.520793,126.703174,2016-10-26
361,성내청소년문화의집,1층 로비,전라북도,고창군,서민·복지시설,LGU+,Public Wifi FREE,2013-11-1,전라북도 고창군 성내면 시기2길 18,전라북도 고창군 성내면 양계리 464,성내청소년문화의집,063-560-2338,35.538574,126.74231,2016-10-26
362,무주반딧불장터,장터내,전라북도,무주군,서민·복지시설,KT,,2014-9-1,전라북도 무주군 무주읍 장터로 2,전라북도 무주군 무주읍 읍내리 1152,전라북도 무주군청,063-320-2309,36.0050138,127.654136,2016-02-26
363,무풍대덕산장터,장터내,전라북도,무주군,서민·복지시설,KT,,2014-9-1,전라북도 무주군 무풍면 현내로 213,전라북도 무주군 무풍면 현내리 259-5,전라북도 무주군청,063-320-2309,35.9680406,127.8489438,2016-02-26
364,설천삼도봉장터,장터내,전라북도,무주군,서민·복지시설,KT,,2014-10-1,전라북도 무주군 설천면 삼도봉로 11,전라북도 무주군 설천면 소천리 904-29,전라북도 무주군청,063-320-2309,36.0100081,127.7882378,2016-02-26
365,안성덕유산장터,장터내,전라북도,무주군,서민·복지시설,KT,,2014-10-1,전라북도 무주군 안성면 칠연로 38,전라북도 무주군 안성면 장기리 1511-6,전라북도 무주군청,063-320-2309,35.8661205,127.6535573,2016-02-26
366,하은의집,사무실,전라북도,무주군,서민·복지시설,KT,,2014-9-1,전라북도 무주군 부남면 상평당길 41,전라북도 무주군 부남면 가당리 1768,전라북도 무주군청,063-320-2309,36.0231487,127.5546509,2016-02-26
367,무풍보건지소,진료실,전라북도,무주군,서민·복지시설,KT,,2014-9-1,전라북도 무주군 무풍면 현내로 234,전라북도 무주군 무풍면 현내리 313-11,전라북도 무주군청,063-320-2309,35.9689394,127.8526444,2016-02-26
368,설천보건지소,진료실,전라북도,무주군,서민·복지시설,KT,,2014-9-1,전라북도 무주군 설천면 무설로 1607,전라북도 무주군 설천면 소천리 903,전라북도 무주군청,063-320-2309,36.0077711,127.7900593,2016-02-26
369,안성공정진료소,진료실,전라북도,무주군,서민·복지시설,KT,,2014-9-1,전라북도 무주군 안성면 칠연로 358,전라북도 무주군 안성면 공정리 1707,전라북도 무주군청,063-320-2309,35.8473523,127.6776211,2016-02-26
370,적상보건지소,진료실,전라북도,무주군,서민·복지시설,KT,,2014-9-1,전라북도 무주군 적상면 적상산로 20,전라북도 무주군 적상면 사천리 320-2,전라북도 무주군청,063-320-2309,35.9425628,127.65936,2016-02-26
371,지곡면사무소,민원실,경상남도,함양군,관공서,경상남도 함양군,SMART-hamyang,2014-1-1,,,경상남도 함양군청,055-960-5116,35.566183,127.774218,2015-09-21
372,강진군 노인복지센터,강진군 노인복지센터,전라남도,강진군,복지시설,KT,Public WiFi Free,2014-7-1,전라남도 강진군 강진읍 영랑로 1길 10,전라남도 강진군 강진읍 영랑로 1길 10,전라남도 강진군,061-430-3300,34.6373855,126.7532169,2016-09-29
373,강진군장애인복지관,강진군장애인복지관,전라남도,강진군,복지시설,KT,Public WiFi Free,2014-7-1,전라남도 강진군 강진읍 탐진로 37-7,전라남도 강진군 강진읍 탐진로 37-7,전라남도 강진군,061-430-3300,34.6384054,126.7438058,2016-09-29
374,강진군장애인심부름센터,강진군장애인심부름센터,전라남도,강진군,복지시설,KT,Public WiFi Free,2014-7-1,전라남도 강진군 강진읍 중앙로 166-2,전라남도 강진군 강진읍 중앙로 166-2,전라남도 강진군,061-430-3300,34.6410395,126.7569281,2016-09-29
375,강진군수화통역센터,강진군수화통역센터,전라남도,강진군,복지시설,KT,Public WiFi Free,2014-7-1,전라남도 강진군 강진읍 영랑로 4길 15,전라남도 강진군 강진읍 영랑로 4길 15,전라남도 강진군,061-430-3300,34.6394519,126.7519943,2016-09-29
376,강진장애인직업재활시설,강진장애인직업재활시설,전라남도,강진군,복지시설,KT,Public WiFi Free,2014-7-1,전라남도 강진군 강진읍 탐진로 37-7,전라남도 강진군 강진읍 탐진로 37-7,전라남도 강진군,061-430-3300,34.6384054,126.7438058,2016-09-29
377,강진자비원,강진자비원,전라남도,강진군,복지시설,KT,Public WiFi Free,2014-7-1,전라남도 강진군 강진읍 동성로 48,전라남도 강진군 강진읍 동성로 48,전라남도 강진군,061-430-3300,34.6429882,126.7552928,2016-09-29
378,강진버스여객터미널,강진버스여객터미널,전라남도,강진군,교통시설,KT,Public WiFi Free,2014-7-1,전라남도 강진군 강진읍 영랑로 35,전라남도 강진군 강진읍 영랑로 35,전라남도 강진군,061-430-3300,34.6385435,126.7504154,2016-09-29
379,마량공용버스터미널,마량공용버스터미널,전라남도,강진군,교통시설,KT,Public WiFi Free,2014-7-1,전라남도 강진군 마량면 마량4길 11,전라남도 강진군 마량면 마량4길 11,전라남도 강진군,061-430-3300,34.4515161,126.7997263,2016-09-29
380,성전버스터미널,성전버스터미널,전라남도,강진군,교통시설,KT,Public WiFi Free,2014-7-1,전라남도 강진군 성전면 별뫼로 379,전라남도 강진군 성전면 별뫼로 379,전라남도 강진군,061-430-3300,34.6915857,126.6906771,2016-09-29
381,강진읍시장,강진읍시장,전라남도,강진군,전통시장,KT,Public WiFi Free,2014-7-1,전라남도 강진군 강진읍 시장길 19,전라남도 강진군 강진읍 시장길 19,전라남도 강진군,061-430-3300,34.6400941,126.7564119,2016-09-29
382,칠량면사무소 민원실,칠량면사무소 민원실,전라남도,강진군,관 공 서,SK,Public WiFi Free,2014-7-1,전라남도 강진군 칠량면 칠량로 67,전라남도 강진군 칠량면 칠량로 67,전라남도 강진군,061-430-3300,34.5727808,126.7818584,2016-09-29
383,도암면사무소 민원실,도암면사무소 민원실,전라남도,강진군,관 공 서,SK,Public WiFi Free,2014-7-1,전라남도 강진군 도암면 도암중앙로 73,전라남도 강진군 도암면 도암중앙로 73,전라남도 강진군,061-430-3300,34.5461307,126.7102501,2016-09-29
384,작천면사무소 민원실,작천면사무소 민원실,전라남도,강진군,관 공 서,SK,Public WiFi Free,2014-7-1,전라남도 강진군 작천면 평리3길 2,전라남도 강진군 작천면 평리3길 2,전라남도 강진군,061-430-3300,34.7043093,126.7539568,2016-09-29
385,산내들지역아동센터,산내들지역아동센터,전라남도,강진군,복지시설,SK,Public WiFi Free,2014-7-1,전라남도 강진군 마량면 삼마로 7-8,전라남도 강진군 마량면 삼마로 7-8,전라남도 강진군,061-430-3300,34.450253,126.8018738,2016-09-29
386,군동보건지소,군동보건지소,전라남도,강진군,관 공 서,SK,Public WiFi Free,2014-7-1,전라남도 강진군 군동면 진흥로 324-9,전라남도 강진군 군동면 진흥로 324-9,전라남도 강진군,061-430-3300,34.6436392,126.7986246,2016-09-29
387,병영5일시장,병영5일시장,전라남도,강진군,전통시장,SK,Public WiFi Free,2014-7-1,전라남도 강진군 병영면 남삼인길 6,전라남도 강진군 병영면 남삼인길 6,전라남도 강진군,061-430-3300,34.713753,126.7981307,2016-09-29
388,스포츠산업단 체육관  수영장,스포츠산업단 체육관  수영장,전라남도,강진군,관 공 서,SK,Public WiFi Free,2014-7-1,전라남도 강진군 군동면 종합운동장길 60,전라남도 강진군 군동면 종합운동장길 60,전라남도 강진군,061-430-3300,34.6465521,126.7649667,2016-09-29
389,군동면사무소 민원실,군동면사무소 민원실,전라남도,강진군,관 공 서,KT,Public WiFi Free,2014-7-1,전라남도 강진군 군동면 진흥로 315,전라남도 강진군 군동면 진흥로 315,전라남도 강진군,061-430-3300,34.6449846,126.7974667,2016-09-29
390,대구면사무소 민원실,대구면사무소 민원실,전라남도,강진군,관 공 서,KT,Public WiFi Free,2014-7-1,전라남도 강진군 대구면 수동길 18,전라남도 강진군 대구면 수동길 18,전라남도 강진군,061-430-3300,34.4954587,126.7833022,2016-09-29
391,옴천면사무소 민원실,옴천면사무소 민원실,전라남도,강진군,관 공 서,KT,Public WiFi Free,2014-7-1,전라남도 강진군 옴천면 개산중앙길 22,전라남도 강진군 옴천면 개산중앙길 22,전라남도 강진군,061-430-3300,34.7450597,126.7768037,2016-09-29
392,다산지역 아동센터,다산지역 아동센터,전라남도,강진군,복지시설,KT,Public WiFi Free,2014-7-1,전라남도 강진군 강진읍 탐진로91 나동 102호,전라남도 강진군 강진읍 탐진로91 나동 102호,전라남도 강진군,061-430-3300,34.6405442,126.7484007,2016-09-29
393,마량 5일 시장,마량 5일 시장,전라남도,강진군,전통시장,KT,Public WiFi Free,2014-7-1,전라남도 강진군 마량면 마량 5길 11,전라남도 강진군 마량면 마량 5길 11,전라남도 강진군,061-430-3300,34.4510325,126.7994089,2016-09-29
394,계양구청,1층민원여권과 부동산관리과 민원실,인천광역시,계양구,관공서,LGU+,Public Free,2014-1-1,인천광역시 계양구 계산새로 88,,인천광역시 계양구청,032-450-6781,37.537367,126.737744,2016-06-07
395,효성1동,민원실,인천광역시,계양구,관공서,LGU+,Public Free,2014-1-1,인천광역시 계양구 봉오대로569번길 22,,인천광역시 계양구청,032-450-6781,37.532479,126.712108,2016-06-07
396,부남보건지소,진료실,전라북도,무주군,서민·복지시설,KT,,2014-9-1,전라북도 무주군 부남면 대소길 3,전라북도 무주군 부남면 대소리 460,전라북도 무주군청,063-320-2309,35.9737937,127.5590144,2016-02-26
397,무주장애인복지관,사무실,전라북도,무주군,서민·복지시설,KT,,2014-9-1,전라북도 무주군 무주읍 한풍루로 425,전라북도 무주군 무주읍 당산리 623,전라북도 무주군청,063-320-2309,36.0056695,127.6728137,2016-02-26
398,무주노인복지관,사무실,전라북도,무주군,서민·복지시설,KT,,2014-9-1,전라북도 무주군 무주읍 한풍루로 425,전라북도 무주군 무주읍 당산리 623,전라북도 무주군청,063-320-2309,36.0056695,127.6728137,2016-02-26
399,반디누리작업장,작업장,전라북도,무주군,서민·복지시설,KT,,2014-9-1,전라북도 무주군 무주읍 한풍루로 425,전라북도 무주군 무주읍 당산리 623,전라북도 무주군청,063-320-2309,36.0056695,127.6728137,2016-02-26
400,부남장안진료소,진료실,전라북도,무주군,서민·복지시설,KT,,2014-9-1,전라북도 무주군 부남면 노루재로 556,전라북도 무주군 부남면 장안리 116-4,전라북도 무주군청,063-320-2309,35.906217,127.5911412,2016-02-26
401,설천구천진료소,진료실,전라북도,무주군,서민·복지시설,KT,,2014-9-1,전라북도 무주군 설천면 구천동로 833,전라북도 무주군 설천면 삼공리 151,전라북도 무주군청,063-320-2309,35.9047214,127.7820145,2016-02-26
402,안성보건지소,진료실,전라북도,무주군,서민·복지시설,KT,,2014-9-1,전라북도 무주군 안성면 안성로 246-17,전라북도 무주군 안성면 장기리 1556,전라북도 무주군청,063-320-2309,35.8637209,127.6531569,2016-02-26
403,반딧불청소년야영장,사무실,전라북도,무주군,지역문화시설,KT,,2014-10-1,전라북도 무주군 설천면 무설로 1324,전라북도 무주군 설천면 청량리 1100,전라북도 무주군청,063-320-2309,36.0111132,127.758702,2016-02-26
404,무풍덕지진료소,진료실,전라북도,무주군,서민·복지시설,KT,,2014-10-1,전라북도 무주군 무풍면 대덕산로 121,전라북도 무주군 무풍면 덕지리 625-3,전라북도 무주군청,063-320-2309,35.9131799,127.8499899,2016-02-26
405,안성공진진료소,진료실,전라북도,무주군,서민·복지시설,KT,,2014-10-1,전라북도 무주군 안성면 장무로 1559-3,전라북도 무주군 안성면 공진리 872-17,전라북도 무주군청,063-320-2309,35.8288155,127.640148,2016-02-26
406,안성진도진료소,진료실,전라북도,무주군,서민·복지시설,KT,,2014-10-1,전라북도 무주군 안성면 오천길 7,전라북도 무주군 안성면 진도리 482,전라북도 무주군청,063-320-2309,35.8650545,127.6239704,2016-02-26
407,계산1동,민원실,인천광역시,계양구,관공서,LGU+,Public Free,2014-1-1,인천광역시 계양구 어사대로 4,,인천광역시 계양구청,032-450-6781,37.542922,126.724412,2016-06-07
408,적상삼방진료소,진료실,전라북도,무주군,서민·복지시설,KT,,2014-10-1,전라북도 무주군 적상면 상비길 11,전라북도 무주군 적상면 삼유리 580-9,전라북도 무주군청,063-320-2309,35.9216675,127.6126927,2016-02-26
409,적상상곡진료소,진료실,전라북도,무주군,서민·복지시설,KT,,2014-10-1,전라북도 무주군 적상면 괴목로 532,전라북도 무주군 적상면 포내리 798-2,전라북도 무주군청,063-320-2309,35.9292445,127.716774,2016-02-26
410,부남가정진료소,진료실,전라북도,무주군,서민·복지시설,KT,,2014-10-1,전라북도 무주군 부남면 부남로 1782,전라북도 무주군 부남면 가당리 456-8,전라북도 무주군청,063-320-2309,36.0144644,127.5799539,2016-02-26
411,무주청소년수련관,수련실,전라북도,무주군,지역문화시설,KT,,2014-10-1,전라북도 무주군 무주읍 한풍루로 326-34,전라북도 무주군 무주읍 당산리 1094-1,전라북도 무주군청,063-320-2309,36.0015985,127.66344,2016-02-26
412,안성청소년문화의집,사무실,전라북도,무주군,지역문화시설,KT,,2014-10-1,전라북도 무주군 안성면 단지봉길 5,전라북도 무주군 안성면 장기리 1554-1,전라북도 무주군청,063-320-2309,35.8643069,127.6531998,2016-02-26
413,무주보건의료원,로비,전라북도,무주군,서민·복지시설,KT,,2014-10-1,전라북도 무주군 무주읍 한풍루로 413,전라북도 무주군 무주읍 당산리 701,전라북도 무주군청,063-320-2309,36.0058819,127.6717091,2016-02-26
414,무주시외버스터미널,대합실,전라북도,무주군,교통시설,KT,,2014-10-1,전라북도 무주군 무주읍 한풍루로 351,전라북도 무주군 무주읍 당산리 1229,전라북도 무주군청,063-320-2309,36.004671,127.6643753,2016-02-26
415,무주공공도서관,열람실,전라북도,무주군,편의시설,KT,,2014-10-1,전라북도 무주군 무주읍 향한로 43,전라북도 무주군 무주읍 읍내리 343,전라북도 무주군청,063-320-2309,36.0106554,127.6604406,2016-02-26
416,완도읍사무소,본청 및 민원실,전라남도,완도군,관공서,LGU+,Public Wify Free,2014-1-1,전라남도 완도군 완도읍 개포로62번길 9,,전라남도 완도군청,061-550-5200,34.31675,126.7455,2016-09-05
417,보건의료원,전체 공간,전라남도,완도군,관공서,LGU+,Public Wify Free,2014-1-1,전라남도 완도군 완도읍 농공단지길 34,,전라남도 완도군청,061-550-5200,34.336213,126.73067,2016-09-05
418,완도여객터미널,여객선 내부 전체,전라남도,완도군,교통시설,LGU+,Public Wify Free,2014-1-1,전라남도 완도군 완도읍 장보고대로 351,,전라남도 완도군청,061-550-5200,34.316281,126.761258,2016-09-05
419,완도군립도서관,도서관 전체,전라남도,완도군,관공서,LGU+,Public Wify Free,2014-1-1,전라남도 완도군 완도읍 주도길 3-1,,전라남도 완도군청,061-550-5200,34.312814,126.754925,2016-09-05
420,계산2동,민원실,인천광역시,계양구,관공서,LGU+,Public Free,2014-1-1,인천광역시 계양구 주부토로 559,,인천광역시 계양구청,032-450-6781,37.544172,126.728022,2016-06-07
421,계산3동,민원실,인천광역시,계양구,관공서,LGU+,Public Free,2014-1-1,인천광역시 계양구 계산로154번길 4,,인천광역시 계양구청,032-450-6781,37.536701,126.729022,2016-06-07
422,계산4동,민원실,인천광역시,계양구,관공서,KT,Public Free,2014-1-1,인천광역시 계양구 용종로 12-8,,인천광역시 계양구청,032-450-6781,37.534507,126.741688,2016-06-07
423,작전1동,민원실,인천광역시,계양구,관공서,LGU+,Public Free,2014-1-1,인천광역시 계양구 봉오대로 727,,인천광역시 계양구청,032-450-6781,37.530757,126.729689,2016-06-07
424,작전2동,민원실,인천광역시,계양구,관공서,LGU+,Public Free,2014-1-1,인천광역시 계양구 봉오대로677번길 23,,인천광역시 계양구청,032-450-6781,37.532896,126.723884,2016-06-07
425,작전서운동,민원실,인천광역시,계양구,관공서,LGU+,Public Free,2014-1-1,인천광역시 계양구 효서로 361,,인천광역시 계양구청,032-450-6781,37.528035,126.736439,2016-06-07
426,계양1동,민원실,인천광역시,계양구,관공서,KT,Public Free,2014-1-1,인천광역시 계양구 장기서로 8,,인천광역시 계양구청,032-450-6781,37.576835,126.734104,2016-06-07
427,계양2동,민원실,인천광역시,계양구,관공서,LGU+,Public Free,2014-1-1,인천광역시 계양구 장제로 853,,인천광역시 계양구청,032-450-6781,37.525063,126.709802,2016-06-07
428,계양구노인복지관,각층,인천광역시,계양구,서민·복지시설,KT,Public Free,2014-1-1,인천광역시 계양구 효서로 341번길11,,인천광역시 계양구청,032-450-6781,37.528651,126.734723,2016-06-07
429,효성노인문화센터,각층,인천광역시,계양구,서민·복지시설,KT,Public Free,2014-1-1,인천광역시 계양구 봉오대로 516,,인천광역시 계양구청,032-450-6781,37.529567,126.70617,2016-06-07
430,계산노인문화센터,각층,인천광역시,계양구,서민·복지시설,KT,Public Free,2014-1-1,인천광역시 계양구 경명대로 980,,인천광역시 계양구청,032-450-6781,37.543532,126.715597,2016-06-07
431,예원,각층,인천광역시,계양구,서민·복지시설,SKT,Public Free,2014-1-1,인천광역시 계양구 둑실안길 54,,인천광역시 계양구청,032-450-6781,37.580012,126.69681,2016-06-07
432,계양구노인복지관(신관),각층,인천광역시,계양구,서민·복지시설,SKT,Public Free,2014-1-1,인천광역시 계양구 효서로341번길 11,,인천광역시 계양구청,032-450-6781,37.528651,126.734723,2016-06-07
433,노틀담복지관,각층,인천광역시,계양구,서민·복지시설,LGU+,Public Free,2014-1-1,인천광역시 계양구 계양산로 35번길 12-37,,인천광역시 계양구청,032-450-6781,37.545865,126.71664,2016-06-07
434,노틀담보호작업장,각층,인천광역시,계양구,서민·복지시설,LGU+,Public Free,2014-1-1,인천광역시 계양구 계양산로 35번길 12-37,,인천광역시 계양구청,032-450-6781,37.545865,126.71664,2016-06-07
435,해피로드,각층,인천광역시,계양구,서민·복지시설,LGU+,Public Free,2014-1-1,인천광역시 계양구 장제로 731  B01호,,인천광역시 계양구청,032-450-6781,37.533158,126.733561,2016-06-07
436,더불어사는집,각층,인천광역시,계양구,서민·복지시설,LGU+,Public Free,2014-1-1,인천광역시 계양구 봉오대로 512번길5,,인천광역시 계양구청,032-450-6781,37.528967,126.705972,2016-06-07
437,계양구청소년수련관,각층,인천광역시,계양구,서민·복지시설,SKT,Public Free,2014-1-1,인천광역시 계양구 장제로 937,,인천광역시 계양구청,032-450-6781,37.55011,126.742004,2016-06-07
438,계양여성회관,각층,인천광역시,계양구,서민·복지시설,LGU+,Public Free,2014-1-1,인천광역시 계양구 봉오대로628번길 10,,인천광역시 계양구청,032-450-6781,37.529221,126.718064,2016-06-07
439,계양도서관,각층,인천광역시,계양구,서민·복지시설,SKT,Public Free,2014-1-1,인천광역시 계양구 계산동 907-4,,인천광역시 계양구청,032-450-6781,37.546017,126.730172,2016-06-07
440,서운도서관,각층,인천광역시,계양구,서민·복지시설,SKT,Public Free,2014-1-1,인천광역시 계양구 아나지로 457번길,,인천광역시 계양구청,032-450-6781,37.526176,126.742961,2016-06-07
441,작전도서관,각층,인천광역시,계양구,서민·복지시설,SKT,Public Free,2014-1-1,인천광역시 계양구 오조산로 21번길4,,인천광역시 계양구청,032-450-6781,37.533281,126.737312,2016-06-07
442,동양도서관,각층,인천광역시,계양구,서민·복지시설,LGU+,Public Free,2014-1-1,인천광역시 계양구 동양동 615-2,,인천광역시 계양구청,032-450-6781,37.561858,126.757841,2016-06-07
443,장기보건지소,각층,인천광역시,계양구,보건시설,KT,Public Free,2014-1-1,인천광역시 계양구 장기서로 8,,인천광역시 계양구청,032-450-6781,37.576736,126.734004,2016-06-07
444,효성건강생활지원센터,각층,인천광역시,계양구,보건시설,KT,Public Free,2014-1-1,인천광역시 계양구 안남로 548 효성프라자 3층 309  310호,,인천광역시 계양구청,032-450-6781,37.531905,126.711052,2016-06-07
445,계산시장,각층,인천광역시,계양구,기타,KT,Public Free,2014-1-1,인천광역시 계양구 계산시장길 10-12,,인천광역시 계양구청,032-450-6781,37.539063,126.725088,2016-06-07
446,계양문화회관,각층,인천광역시,계양구,기타,SKT,Public Free,2014-1-1,인천광역시 계양구 계양산로35번길 11,,인천광역시 계양구청,032-450-6781,37.546023,126.718134,2016-06-07
447,안의면사무소,민원실,경상남도,함양군,관공서,경상남도 함양군,SMART-hamyang,2014-1-1,,,경상남도 함양군청,055-960-5116,35.628665,127.811288,2015-09-21
448,건강보험관리공단,민원실,인천광역시,계양구,기타,KT,Public Free,2014-1-1,인천광역시 계양구 작전동 866-4,,인천광역시 계양구청,032-450-6781,37.529593,126.723191,2016-06-07
449,농협부평교대역점,민원실,인천광역시,계양구,기타,SKT,Public Free,2014-1-1,인천광역시 계양구 계산동 987-20,,인천광역시 계양구청,032-450-6781,37.537014,126.722151,2016-06-07
450,계양등기소,민원실,인천광역시,계양구,기타,LGU+,Public Free,2014-1-1,인천광역시 계양구 계산동 1077-2,,인천광역시 계양구청,032-450-6781,37.536326,126.736199,2016-06-07
451,계양3동 주민센터,민원실,인천광역시,계양구,관공서,KT,Public Free,2014-1-1,인천광역시 계양구 동양로 129,,인천광역시 계양구청,032-450-6781,37.55933,126.75935,2016-06-07
452,의정부시청,본관  별관  민원실,경기도,의정부시,관공서,SKT  KT,T wifi zone  ollehwifi,2011-10-1,경기도 의정부시 시민로 1 (의정부동),경기도 의정부시 의정부동 326-2,경기도 의정부시청,031-828-2302,37.738089,127.033733,2015-08-31
453,의정부1동 주민자치센터,민원실,경기도,의정부시,관공서,KT,ollehwifi,2011-10-1,경기도 의정부시 가능로152번길 14 (의정부동),경기도 의정부시 의정부동 225-1,경기도 의정부시청,031-828-2302,37.746355,127.047652,2015-08-31
454,의정부2동 주민자치센터,민원실,경기도,의정부시,관공서,KT,ollehwifi,2011-10-1,경기도 의정부시 신흥로 275 (의정부동),경기도 의정부시 의정부동 433-52,경기도 의정부시청,031-828-2302,37.740791,127.042825,2015-08-31
455,의정부3동 주민자치센터,민원실,경기도,의정부시,관공서,KT,ollehwifi,2011-10-1,경기도 의정부시 경의로 120 (의정부동),경기도 의정부시 의정부동 371,경기도 의정부시청,031-828-2302,37.732795,127.048934,2015-08-31
456,호원1동 주민자치센터,민원실,경기도,의정부시,관공서,KT,ollehwifi,2011-10-1,경기도 의정부시 평화로230번길 12-9 (호원동),경기도 의정부시 호원동 456-5,경기도 의정부시청,031-828-2302,37.71199,127.048744,2015-08-31
457,호원2동 주민자치센터,민원실,경기도,의정부시,관공서,KT,ollehwifi,2011-10-1,경기도 의정부시 신흥로 115 (호원동),경기도 의정부시 호원동 319-2,경기도 의정부시청,031-828-2302,37.726476,127.043125,2015-08-31
458,장암동 주민자치센터,민원실,경기도,의정부시,관공서,KT,ollehwifi,2011-10-1,경기도 의정부시 장곡로250번길 23 (장암동),경기도 의정부시 장암동 20-10,경기도 의정부시청,031-828-2302,37.726413,127.054269,2015-08-31
459,신곡1동 주민자치센터,민원실,경기도,의정부시,관공서,KT,ollehwifi,2011-10-1,경기도 의정부시 발곡로 17 (신곡동),경기도 의정부시 신곡동 716-1,경기도 의정부시청,031-828-2302,37.731501,127.056764,2015-08-31
460,신곡2동 주민자치센터,민원실,경기도,의정부시,관공서,KT,ollehwifi,2011-10-1,경기도 의정부시 추동로23번길 7 (신곡동),경기도 의정부시 신곡동 672,경기도 의정부시청,031-828-2302,37.743627,127.057913,2015-08-31
461,송산1동 주민자치센터,민원실,경기도,의정부시,관공서,KT,ollehwifi,2011-10-1,경기도 의정부시 민락로 13 (용현동),경기도 의정부시 용현동 60-8,경기도 의정부시청,031-828-2302,37.731076,127.086807,2015-08-31
462,송산2동 주민자치센터,민원실,경기도,의정부시,관공서,KT,ollehwifi,2011-10-1,경기도 의정부시 용민로 115 (민락동),경기도 의정부시 민락동 743-2,경기도 의정부시청,031-828-2302,37.739717,127.089991,2015-08-31
463,자금동 주민자치센터,민원실,경기도,의정부시,관공서,KT,ollehwifi,2011-10-1,경기도 의정부시 거북로 13 (금오동),경기도 의정부시 금오동 285-52,경기도 의정부시청,031-828-2302,37.750275,127.058139,2015-08-31
464,가능1동 주민자치센터,민원실,경기도,의정부시,관공서,KT,ollehwifi,2011-10-1,경기도 의정부시 신촌로 35 (가능동),경기도 의정부시 가능동 617-8,경기도 의정부시청,031-828-2302,37.75051,127.038383,2015-08-31
465,가능2동 주민자치센터,민원실,경기도,의정부시,관공서,KT,ollehwifi,2011-10-1,경기도 의정부시 의정로88번길 9 (가능동),경기도 의정부시 가능동 831-1,경기도 의정부시청,031-828-2302,37.740785,127.03551,2015-08-31
466,가능3동 주민자치센터,민원실,경기도,의정부시,관공서,KT,ollehwifi,2011-10-1,경기도 의정부시 호국로1135번길 15 (가능동),경기도 의정부시 가능동 702-10,경기도 의정부시청,031-828-2302,37.743381,127.029657,2015-08-31
467,녹양동 주민자치센터,민원실,경기도,의정부시,관공서,KT,ollehwifi,2011-10-1,경기도 의정부시 진등로 21 (녹양동),경기도 의정부시 녹양동 374-6,경기도 의정부시청,031-828-2302,37.759987,127.032355,2015-08-31
468,도시농업기술과,본관,경기도,의정부시,관공서,KT,ollehwifi,2011-10-1,경기도 의정부시 시민로416번길 107 (용현동),경기도 의정부시 용현동 490-1,경기도 의정부시청,031-828-2302,37.728626,127.077135,2015-08-31
469,보건소,민원실,경기도,의정부시,관공서,SKT  KT,T wifi zone  ollehwifi,2011-10-1,경기도 의정부시 범골로 131 (의정부동),경기도 의정부시 의정부동 516,경기도 의정부시청,031-828-2302,37.736152,127.039568,2015-08-31
470,맑은물환경사업소,민원실,경기도,의정부시,관공서,KT,ollehwifi,2011-10-1,경기도 의정부시 호국로1049번길 39 (가능동),경기도 의정부시 가능동 590-24,경기도 의정부시청,031-828-2302,37.741621,127.019697,2015-08-31
471,화명역,승강장,부산광역시,북구,교통시설,LGU+,Public WiFi,2013-9-1,부산광역시 북구 금곡대로 311,부산광역시 북구 화명동 1458-9,부산광역시,051-888-4602,35.2363431,129.0138411,2015-09-24
472,차량등록사업소,민원실,경기도,의정부시,관공서,KT,ollehwifi,2011-10-1,경기도 의정부시 체육로 90 (녹양동),경기도 의정부시 녹양동 174-1,경기도 의정부시청,031-828-2302,37.757003,127.029757,2015-08-31
473,청소년수련관,본관,경기도,의정부시,서민·복지시설,SKT,T wifi zone,2011-10-1,경기도 의정부시 의정로 27 (의정부동),경기도 의정부시 의정부동 352,경기도 의정부시 시설관리공단,031-828-9500,37.735087,127.034104,2015-08-31
474,예술의전당,본관,경기도,의정부시,지역문화시설,SKT,T wifi zone,2011-10-1,경기도 의정부시 의정로 1 (의정부동),경기도 의정부시 의정부동 323,경기도 의정부시 예술의전당,031-828-5841,37.733413,127.034368,2015-08-31
475,의정부시장애인종합복지관,본관,경기도,의정부시,서민·복지시설,KT,ollehwifi,2011-10-1,경기도 의정부시 용민로 160 (민락동),경기도 의정부시 민락동 735-17,경기도 의정부시청,031-850-5300,37.43662,127.09223,2015-08-31
476,의정부 과학도서관,자연과학실 인문과학실 꿈나무실,경기도,의정부시,관공서,경기도 의정부시,uilib-Science-Lib,2012-10-1,경기도 의정부시 추동로124번길 52 (신곡동),경기도 의정부시 신곡동 124-1,경기도 의정부시청,031-828-8655,37.744874,127.069053,2015-08-31
477,의정부 정보도서관,1층 학습1실  학습2실  노트북실  정보미디어실  꾸러기열람실  힘든이열람실  2층 사무실  문헌정보실 디지털정보실,경기도,의정부시,관공서,KT,,2011-10-1,경기도 의정부시 의정로 41 (의정부동),경기도 의정부시 의정부동 326-7,경기도 의정부시청,031-828-4824,37.736479,127.033922,2015-08-31
478,선원보건지소,1층로비,인천광역시,강화군,관공서,SKT,publicwififree,2014-12-1,인천광역시 강화군 선원면 대문고개로 22,,인천광역시 강화군청,032-930-3299,37.7143314,126.4843242,2015-10-15
479,연리보건진료소,1층진료실,인천광역시,강화군,관공서,SKT,publicwififree,2014-12-1,인천광역시 강화군 선원면 연동로 210번길 3,,인천광역시 강화군청,032-930-3299,37.7074625,126.4942687,2015-10-15
480,불은보건지소,1층로비,인천광역시,강화군,관공서,SKT,publicwififree,2014-12-1,인천광역시 강화군 불은면 강화동로 562-3,,인천광역시 강화군청,032-930-3299,37.6871251,126.4798541,2015-10-15
481,오도보건진료소,1층진료실,인천광역시,강화군,관공서,SKT,publicwififree,2014-12-1,인천광역시 강화군 불은면 불은남로 293,,인천광역시 강화군청,032-930-3299,37.6766927,126.5111591,2015-10-15
482,길상보건지소,1층로비,인천광역시,강화군,관공서,SKT,publicwififree,2014-12-1,인천광역시 강화군 길상면 온수리 502-3,,인천광역시 강화군청,032-930-3299,37.6413357,126.4912449,2015-10-15
483,장성중앙시장,중앙시장 내,강원도,태백시,기타,LG U+,Public WiFi FREE,2015-11-1,강원도 태백시 장성1길 190,강원도 태백시 장성동 170-107,태백시청,033-550-2025,37.09986,129.011175,2016-10-20
484,철암청소년장학센터,프로그램실 외,강원도,태백시,서민·복지시설,LG U+,Public WiFi FREE,2015-11-1,강원도 태백시 동태백로 558,강원도 태백시 철암동 341-25,태백시청,033-550-2025,37.121279,129.044054,2016-10-20
485,태백시청소년수련관,야영장 외,강원도,태백시,서민·복지시설,LG U+,Public WiFi FREE,2015-11-1,강원도 태백시 천제단길 148,강원도 태백시 소도동 331-3,태백시청,033-550-2025,37.121833,128.951719,2016-10-20
486,통리장,통리장터,강원도,태백시,기타,LG U+,Public WiFi FREE,2015-11-1,강원도 태백시 통리1길 39 일원,강원도 태백시 황연동 74-12,태백시청,033-550-2025,37.168676,129.0367,2016-10-20
487,황지자유시장,자유시장 내,강원도,태백시,기타,LG U+,Public WiFi FREE,2015-11-1,강원도 태백시 시장안1길 18-1,강원도 태백시 황지동 38-129,태백시청,033-550-2025,37.173451,128.993098,2016-10-20
488,태백시의회,민원실,강원도,태백시,관공서,LG U+,Public WiFi FREE,2015-11-1,강원도 태백시 태붐로 21,강원도 태백시 황지동 244-3,태백시청,033-550-2025,37.164333,128.986449,2016-10-20
489,여성교양학습회관,프로그램실 외,강원도,태백시,관공서,LG U+,Public WiFi FREE,2015-11-1,강원도 태백시 태백로 1239,강원도 태백시 황지동 123-5,태백시청,033-550-2025,37.148119,128.994345,2016-10-20
490,태백산국립공원,제1주차장 휴게실,강원도,태백시,관광,LG U+,Public_WiFi Free 2.4G,2015-11-1,강원도 태백시 천제단길 168,강원도 태백시 소도동 325,태백시청,033-550-2025,37.120849,128.95119,2016-10-20
491,고생대자연사박물관,박물관 내 외부,강원도,태백시,관광,LG U+,Public_WiFi Free 2.4G,2015-11-1,강원도 태백시 태백로 2249,강원도 태백시 동점동 295,태백시청,033-550-2025,37.09508,129.039513,2016-10-20
492,용연동굴,휴게실,강원도,태백시,관광,LG U+,Public_WiFi Free 2.4G,2015-11-1,강원도 태백시 태백로 283-29,강원도 태백시 화전동 산47-69,태백시청,033-550-2025,37.219148,128.941271,2016-10-20
493,태백고원자연휴양림,외부휴양시설,강원도,태백시,관광,LG U+,Public_WiFi Free 2.4G,2015-11-1,강원도 태백시 머리골길 153,강원도 태백시 철암동 산90-1,태백시청,033-550-2025,37.129465,129.068221,2016-10-20
494,서하면사무소,민원실,경상남도,함양군,관공서,경상남도 함양군,SMART-hamyang,2014-1-1,,,경상남도 함양군청,055-960-5116,35.647589,127.69542,2015-09-21
495,한국청소년안전체험관,휴게공간,강원도,태백시,관광,LG U+,Public_WiFi Free 2.4G,2015-11-1,강원도 태백시 평화길 15,강원도 태백시 장성동 40,태백시청,033-550-2025,37.100751,129.023647,2016-10-20
496,태백문화예술회관,외부공간,강원도,태백시,지역문화시설,LG U+,Public_WiFi Free 2.4G,2015-11-1,강원도 태백시 고원로 203,강원도 태백시 황지동 49-225,태백시청,033-550-2025,37.172026,128.987953,2016-10-20
497,검룡소,주차장,강원도,태백시,관광,LG U+,Public_WiFi Free 2.4G,2016-7-1,강원도 태백시 창죽동 산1-1,강원도 태백시 창죽동 산1-1,태백시청,033-550-2025,37.231012,128.938483,2016-10-20
498,수질환경사업소,자연학습장,강원도,태백시,관공서,LG U+,Public_WiFi Free 2.4G,2016-7-1,강원도 태백시 사군드리길 103-38,강원도 태백시 구문소동 241,태백시청,033-550-2025,37.086959,129.036363,2016-10-20
499,삼수령,휴게공간,강원도,태백시,관광,LG U+,Public_WiFi Free 2.4G,2016-7-1,강원도 태백시 적각동 산61-1번지,강원도 태백시 적각동 산61-1번지,태백시청,033-550-2025,37.221169,128.986805,2016-10-20
500,연화산유원지,주차장  유아숲체험장,강원도,태백시,관광,LG U+,Public_WiFi Free 2.4G,2016-7-1,강원도 태백시 백산동 산53,강원도 태백시 백산동 산53,태백시청,033-550-2025,37.148344,129.011471,2016-10-20
501,매봉산 바람의 언덕,풍력발전기 4  6호기 앞,강원도,태백시,관광,LG U+,Public_WiFi Free 2.4G,2016-7-1,강원도 태백시 창죽동 9-384,강원도 태백시 창죽동 9-384,태백시청,033-550-2025,37.224797,128.965229,2016-10-20
502,철암탄광역사촌,외부공간,강원도,태백시,관광,LG U+,Public_WiFi Free 2.4G,2016-7-1,강원도 태백시 동태백로 406,강원도 태백시 철암동 403-59,태백시청,033-550-2025,37.114348,129.037166,2016-10-20
503,금곡청소년센터,로비,부산광역시,북구,서민복지시설,LGU+,Public WiFi,2012-10-1,부산광역시 북구 효열로 158(금곡동),부산광역시 북구 금곡동 100-1,부산광역시,051-888-4602,35.2594941,129.0166681,2015-09-24
504,한국산업인력공단 부산지부,로비,부산광역시,북구,관공서,LGU+,Public WiFi,2012-10-1,부산광역시 북구 금곡대로441번길 26(금곡동),부산광역시 북구 금곡동 1877,부산광역시,051-888-4602,35.2485011,129.0108511,2015-09-24
505,만덕종합사회복지관,로비,부산광역시,북구,서민복지시설,LGU+,Public WiFi,2012-10-1,부산광역시 북구 함박봉로140번길 102(만덕동),부산광역시 북구 만덕2동 949-1,부산광역시,051-888-4602,35.2019111,129.0353841,2015-09-24
506,구포2동 주민센터,승강장,부산광역시,북구,관공서,SKT,Public WiFi,2012-10-1,부산광역시 북구 구포만세길 137(구포동),부산광역시 북구 구포1동 1060,부산광역시,051-888-4602,35.2027181,128.9979931,2015-09-24
507,화도보건지소,1층로비,인천광역시,강화군,관공서,SKT,publicwififree,2014-12-1,인천광역시 강화군 화도면 마니산로 703-14,,인천광역시 강화군청,032-930-3299,37.6322478,126.4203573,2015-10-15
508,건평보건진료소,1층진료실,인천광역시,강화군,관공서,SKT,publicwififree,2014-12-1,인천광역시 강화군 양도면 건평로 155번길 41,,인천광역시 강화군청,032-930-3299,37.6809819,126.4059679,2015-10-15
509,송해보건지소,1층로비,인천광역시,강화군,관공서,SKT,publicwififree,2014-12-1,인천광역시 강화군 송해면 전망대로 29,,인천광역시 강화군청,032-930-3299,37.7653913,126.4624033,2015-10-15
510,강화군보건소,1층로비,인천광역시,강화군,관공서,SKT,publicwififree,2014-12-1,인천광역시 강화군 강화읍 충렬사로 26-1,,인천광역시 강화군청,032-930-3299,37.7379656,126.4841146,2015-10-15
511,양도보건지소,1층로비,인천광역시,강화군,관공서,SKT,publicwififree,2014-12-1,인천광역시 강화군 양도면 강화남로 708-1,,인천광역시 강화군청,032-930-3299,37.6633824,126.4216636,2015-10-15
512,내가보건지소,1층로비,인천광역시,강화군,관공서,SKT,publicwififree,2014-12-1,인천광역시 강화군 내가면 강화서로 249,,인천광역시 강화군청,032-930-3299,37.7200419,126.3893523,2015-10-15
513,신삼보건진료소,1층진료실,인천광역시,강화군,관공서,SKT,publicwififree,2014-12-1,인천광역시 강화군 하점면 고려산로 506-2,,인천광역시 강화군청,032-930-3299,37.7525663,126.3934493,2015-10-15
514,인화보건진료소,1층진료실,인천광역시,강화군,관공서,SKT,publicwififree,2014-12-1,인천광역시 강화군 양사면 서사길105번길 47,,인천광역시 강화군청,032-930-3299,37.7963691,126.3797033,2015-10-15
515,양사보건지소,1층로비,인천광역시,강화군,관공서,SKT,publicwififree,2014-12-1,인천광역시 강화군 양사면 전망대로 1295-7,,인천광역시 강화군청,032-930-3299,37.8060547,126.4043396,2015-10-15
516,하점보건지소,1층로비,인천광역시,강화군,관공서,SKT,publicwififree,2014-12-1,인천광역시 강화군 하점면 강화대로 1220,,인천광역시 강화군청,032-930-3299,37.7750381,126.4106773,2015-10-15
517,강화풍물시장,1층로비,인천광역시,강화군,기타,LGU+,publicwififree,2014-12-1,인천광역시 강화군 강화읍 중앙로 17-9,,인천광역시 강화군청,032-930-3299,37.7422919,126.4921831,2015-10-15
518,강화군자원봉사센터,사무실내,인천광역시,강화군,서민·복지시설,LGU+,publicwififree,2014-12-1,인천광역시 강화군 강화읍 강화대로394 별관4층,,인천광역시 강화군청,032-930-3299,37.7471724,126.4871795,2015-10-15
519,구포역,승강장,부산광역시,북구,교통시설,SKT,Public WiFi,2013-9-1,부산광역시 북구 낙동대로 1697,부산광역시 북구 구포동 1157-1,부산광역시,051-888-4602,35.2066991,128.9964191,2015-09-24
520,고인돌지역아동센터,센터내,인천광역시,강화군,서민·복지시설,LGU+,publicwififree,2014-12-1,인천광역시 강화군 하점면 강화대로 1089,,인천광역시 강화군청,032-930-3299,37.7734345,126.4246731,2015-10-15
521,열매지역아동센터,센터내,인천광역시,강화군,서민·복지시설,LGU+,publicwififree,2014-12-1,인천광역시 강화군 강화읍 갑룡길 76-17,,인천광역시 강화군청,032-930-3299,37.7439679,126.5013841,2015-10-15
522,교동면보건지소,1층로비,인천광역시,강화군,관공서,LGU+,publicwififree,2014-12-1,인천광역시 강화군 교동면 교동동로 485-13,,인천광역시 강화군청,032-930-3299,37.7843866,126.2831036,2015-10-15
523,흥왕리보건진료소,진료실,인천광역시,강화군,관공서,LGU+,publicwififree,2014-12-1,인천광역시 강화군 화도면 해안남로1950,,인천광역시 강화군청,032-930-3299,37.6077745,126.4147053,2015-10-15
524,삼선리보건진료소,진료실,인천광역시,강화군,관공서,LGU+,publicwififree,2014-12-1,인천광역시 강화군 교동면 교동북로222-1,,인천광역시 강화군청,032-930-3299,37.7960582,126.2615682,2015-10-15
525,상용리보건진료소,진료실,인천광역시,강화군,관공서,LGU+,publicwififree,2014-12-1,인천광역시 강화군 교동면 교동동로208-3,,인천광역시 강화군청,032-930-3299,37.7957982,126.3078313,2015-10-15
526,화도면사무소,민원실,인천광역시,강화군,관공서,LGU+,publicwififree,2014-12-1,인천광역시 강화군 화도면 마니산로 703-14,,인천광역시 강화군청,032-930-3299,37.6322478,126.4203575,2015-10-15
527,강화읍주민자치센터,1층 안내실,인천광역시,강화군,관공서,LGU+,publicwififree,2014-12-1,인천광역시 강화군 강화읍 강화대로440번길10,,인천광역시 강화군청,032-930-3299,37.7490618,126.4828782,2015-10-15
528,강화군보훈회관,1층로비,인천광역시,강화군,서민·복지시설,LGU+,publicwififree,2014-12-1,인천광역시 강화군 강화읍 강화대로373,,인천광역시 강화군청,032-930-3299,37.7449077,126.4879742,2015-10-15
529,강화군센터드림스타트,사무실내,인천광역시,강화군,관공서,LGU+,publicwififree,2014-12-1,인천광역시 강화군 강화읍 북문길11-1,,인천광역시 강화군청,032-930-3299,37.7489863,126.4836867,2015-10-15
530,장애인회관,1층로비,인천광역시,강화군,서민·복지시설,LGU+,publicwififree,2014-12-1,인천광역시 강화군 강화읍 강화대로371-1,,인천광역시 강화군청,032-930-3299,37.7449075,126.4879747,2015-10-15
531,강화장애인복지관,1층 복도,인천광역시,강화군,서민·복지시설,KT,publicwififree,2014-12-1,인천광역시 강화군 강화읍 충렬사로 63,,인천광역시 강화군청,032-930-3299,37.7483212,126.4835665,2015-10-15
532,강화농업기술센터본관,1층 복도,인천광역시,강화군,관공서,KT,publicwififree,2014-12-1,인천광역시 강화군 불은면 중앙로742-2,,인천광역시 강화군청,032-930-3299,37.7047064,126.4343527,2015-10-15
533,선원면사무소,민원실,인천광역시,강화군,관공서,KT,publicwififree,2014-12-1,인천광역시 강화군 선원면 대문고개로 22,,인천광역시 강화군청,032-930-3299,37.7143319,126.4843247,2015-10-15
534,선원면주민자치센터,1층 출입구,인천광역시,강화군,관공서,KT,publicwififree,2014-12-1,인천광역시 강화군 선원면 대문고개로 22,,인천광역시 강화군청,032-930-3299,37.7143319,126.4843249,2015-10-15
535,길상면사무소,민원실,인천광역시,강화군,관공서,KT,publicwififree,2014-12-1,인천광역시 강화군 길상면 강화동로15,,인천광역시 강화군청,032-930-3299,37.6413355,126.4912447,2015-10-15
536,양도면주민자치센터,1층 출입구,인천광역시,강화군,관공서,KT,publicwififree,2014-12-1,인천광역시 강화군 양도면 강화남로 708,,인천광역시 강화군청,032-930-3299,37.6629119,126.4215022,2015-10-15
537,내가면 주민자치센터,1층 중앙복도,인천광역시,강화군,관공서,KT,publicwififree,2014-12-1,인천광역시 강화군 내가면 강화서로 249,,인천광역시 강화군청,032-930-3299,37.5665354,126.9779698,2015-10-15
538,하점면사무소,민원실,인천광역시,강화군,관공서,KT,publicwififree,2014-12-1,인천광역시 강화군 하점면 강화대로 1220,,인천광역시 강화군청,032-930-3299,37.7750385,126.4106777,2015-10-15
539,하점면주민자치센터,1층 강당,인천광역시,강화군,관공서,KT,publicwififree,2014-12-1,인천광역시 강화군 하점면 강화대로 1220,,인천광역시 강화군청,032-930-3299,37.7750388,126.4106779,2015-10-15
540,송해면사무소,민원실,인천광역시,강화군,관공서,KT,publicwififree,2014-12-1,인천광역시 강화군 송해면 전망대로 29,,인천광역시 강화군청,032-930-3299,37.7653915,126.4624032,2015-10-15
541,삼산면사무소,민원실,인천광역시,강화군,관공서,KT,publicwififree,2014-12-1,인천광역시 강화군 삼산면 삼산북로471번길 15,,인천광역시 강화군청,032-930-3299,37.7035037,126.3209536,2015-10-15
542,삼산면주민자치센터,1층 강당,인천광역시,강화군,관공서,KT,publicwififree,2014-12-1,인천광역시 강화군 삼산면 삼산북로471번길 13,,인천광역시 강화군청,032-930-3299,37.7037978,126.3210192,2015-10-15
543,양사면사무소,민원실,인천광역시,강화군,관공서,KT,publicwififree,2014-12-1,인천광역시 강화군 양사면 전망대로 1391,,인천광역시 강화군청,032-930-3299,37.7988283,126.4072755,2015-10-15
544,평리1동,통신실,대구광역시,서구,관공서,SKT,public Wifi,2014-1-1,대구광역시 서구 문화로280,대구광역시 서구 평리동1044-1,대구광역시 서구청,053-663-2473,35.8755955,128.563288,2016-09-10
545,양사면주민자치센터,체력단련실,인천광역시,강화군,관공서,KT,publicwififree,2014-12-1,인천광역시 강화군 양사면 전망대로 1391,,인천광역시 강화군청,032-930-3299,37.7988282,126.4072753,2015-10-15
546,강화청소년문화의집,휴게실,인천광역시,강화군,서민·복지시설,KT,publicwififree,2014-12-1,인천광역시 강화군 강화읍 향나무길22번길 30-1,,인천광역시 강화군청,032-930-3299,37.7475728,126.4765115,2015-10-15
547,강화청소년수련관,휴게실,인천광역시,강화군,서민·복지시설,KT,publicwififree,2014-12-1,인천광역시 강화군 강화읍 강화대로 154,,인천광역시 강화군청,032-930-3299,37.7394058,126.5120634,2015-10-15
548,강화여성복지회관,1층 복도,인천광역시,강화군,서민·복지시설,KT,publicwififree,2014-12-1,인천광역시 강화군 강화읍 강화대로 154,,인천광역시 강화군청,032-930-3299,37.7394059,126.5120635,2015-10-15
549,불은면주민자치센터,1층 로비,인천광역시,강화군,관공서,KT,publicwififree,2014-12-1,인천광역시 강화군 불은면 강화동로 562-3,,인천광역시 강화군청,032-930-3299,37.6871255,126.4798547,2015-10-15
550,길상면주민자치센터,1층 로비,인천광역시,강화군,관공서,KT,publicwififree,2014-12-1,인천광역시 강화군 길상면 강화동로15,,인천광역시 강화군청,032-930-3299,37.6413351,126.4912448,2015-10-15
551,화도면주민자치센터,1층 로비,인천광역시,강화군,관공서,KT,publicwififree,2014-12-1,인천광역시 강화군 화도면 마니산로 703-1,,인천광역시 강화군청,032-930-3299,37.6322474,126.4203578,2015-10-15
552,강화중앙시장 A동,1층 상가,인천광역시,강화군,기타,KT,publicwififree,2014-12-1,인천광역시 강화군 강화읍 강화대로 429,,인천광역시 강화군청,032-930-3299,37.7476748,126.4831363,2015-10-15
553,인천강화지역자활센터,1층 강당,인천광역시,강화군,서민·복지시설,KT,publicwififree,2014-12-1,인천광역시 강화군 강화읍 충렬사로 155,,인천광역시 강화군청,032-930-3299,37.7298431,126.4740733,2015-10-15
554,강화노인복지회관,1층 복도,인천광역시,강화군,서민·복지시설,KT,publicwififree,2014-12-1,인천광역시 강화군 강화읍 중앙로 17-16,,인천광역시 강화군청,032-930-3299,37.7411786,126.4905411,2015-10-15
555,송해면주민자치센터,1층 사무실,인천광역시,강화군,관공서,KT,publicwififree,2014-12-1,인천광역시 강화군 송해면 전망대로 29,,인천광역시 강화군청,032-930-3299,37.7653919,126.4624033,2015-10-15
556,매음리보건진료소,진료실,인천광역시,강화군,관공서,SKT,publicwififree,2014-12-1,인천광역시 강화군 삼산면 어류정길 36,,인천광역시 강화군청,032-930-3299,37.6641126,126.3488237,2015-10-15
557,강화 갯벌센터,체험실,인천광역시,강화군,교육시설,KT,publicwififree,2014-10-1,인천광역시 강화군 화도면 해안남로 2293-37,,인천광역시 강화군청,032-930-3299,37.6095064,126.3832561,2015-10-15
558,고인돌공원관리사무소,사무실내,인천광역시,강화군,관광,KT,publicwififree,2014-10-1,인천광역시 강화군 하점면 강화대로 1089,,인천광역시 강화군청,032-930-3299,37.7734344,126.4246721,2015-10-15
559,석모도자연휴양림,강당,인천광역시,강화군,관광,KT,publicwififree,2014-10-1,인천광역시 강화군 삼산면 석모리 산89번지,,인천광역시 강화군청,032-930-3299,37.6925528,126.3289214,2015-10-15
560,양도면사무소,민원실,인천광역시,강화군,관공서,KT,publicwififree,2014-10-1,인천광역시 강화군 양도면 강화남로 722,,인천광역시 강화군청,032-930-3299,37.6643244,126.4208051,2015-10-15
561,포천시의회,포천시의회 3층,경기도,포천시,관공서,KT,NESPOT ollleh WiFi,2016-11-1,경기도 포천시  중앙로 87,경기도 포천시 신읍동 58-2,경기도 포천시청,031-538-2301,37.894599,127.200179,2016-08-31
562,포천시청,제2별관 1층,경기도,포천시,관공서,KT,NESPOT ollleh WiFi,2016-11-1,경기도 포천시  중앙로 87,경기도 포천시 신읍동 58-2,경기도 포천시청,031-538-2301,37.894599,127.200179,2016-08-31
563,포천시청,제2별관 2층,경기도,포천시,관공서,KT,NESPOT ollleh WiFi,2016-11-1,경기도 포천시  중앙로 87,경기도 포천시 신읍동 58-2,경기도 포천시청,031-538-2301,37.894599,127.200179,2016-08-31
564,포천시청,제2별관 3층,경기도,포천시,관공서,KT,NESPOT ollleh WiFi,2016-11-1,경기도 포천시  중앙로 87,경기도 포천시 신읍동 58-2,경기도 포천시청,031-538-2301,37.894599,127.200179,2016-08-31
565,포천시청,제3별관 1층,경기도,포천시,관공서,KT,NESPOT ollleh WiFi,2016-11-1,경기도 포천시  중앙로 87,경기도 포천시 신읍동 58-2,경기도 포천시청,031-538-2301,37.894599,127.200179,2016-08-31
566,포천시청,제3별관 2층,경기도,포천시,관공서,KT,NESPOT ollleh WiFi,2016-11-1,경기도 포천시  중앙로 87,경기도 포천시 신읍동 58-2,경기도 포천시청,031-538-2301,37.894599,127.200179,2016-08-31
567,포천시청,제3별관 3층,경기도,포천시,관공서,KT,NESPOT ollleh WiFi,2016-11-1,경기도 포천시  중앙로 87,경기도 포천시 신읍동 58-2,경기도 포천시청,031-538-2301,37.894599,127.200179,2016-08-31
568,포천시청,재난상황실,경기도,포천시,관공서,KT,NESPOT ollleh WiFi,2016-11-1,경기도 포천시  중앙로 87,경기도 포천시 신읍동 58-2,경기도 포천시청,031-538-2301,37.894599,127.200179,2016-08-31
569,평리3동,민원실,대구광역시,서구,관공서,KT,public Wifi,2014-1-1,대구광역시 서구 문화로261,대구광역시 서구 평리동931-1,대구광역시 서구청,053-663-2473,35.8759141,128.5613038,2016-09-10
570,부산광역시립 구포도서관,민원실,부산광역시,북구,지역문화시설,SKT,Public WiFi,2012-10-1,부산광역시 북구 낙동북로663번길 23 (구포동),부산광역시 북구 구포2동 1030-68,부산광역시,051-888-4602,35.1939141,128.9964811,2015-09-24
571,만덕1동 주민센터,열람실,부산광역시,북구,관공서,SKT,Public WiFi,2012-10-1,부산광역시 북구 백양대로1016번다길 43(구포동),부산광역시 북구 구포2동 1139-1,부산광역시,051-888-4602,35.2134731,129.0363911,2015-09-24
572,만덕3동 주민센터,민원실,부산광역시,북구,관공서,SKT,Public WiFi,2012-10-1,부산광역시 북구 만덕1로 1(만덕동),부산광역시 북구 만덕1동 830-34,부산광역시,051-888-4602,35.2113891,129.0292251,2015-09-24
573,화명동 어촌박물관,민원실,부산광역시,북구,지역문화시설,SKT,Public WiFi,2012-10-1,부산광역시 북구 학사로 128,부산광역시 북구 화명3동 2279,부산광역시,051-888-4602,35.2336641,129.0086881,2015-09-24
574,금곡청소년수련관,로비,부산광역시,북구,서민복지시설,KT,Public WiFi,2012-10-1,부산광역시 북구 효열로 158,부산광역시 북구 금곡동 100-1,부산광역시,051-888-4602,35.2594941,129.0166681,2015-09-24
575,공창종합사회복지관,로비,부산광역시,북구,서민복지시설,KT,Public WiFi,2013-9-1,부산광역시 북구 효열로 268,부산광역시 북구 금곡동 53-1,부산광역시,051-888-4602,35.2679621,129.0194221,2015-09-24
576,남산정복지관,로비,부산광역시,북구,서민복지시설,KT,Public WiFi,2013-9-1,부산광역시 북구 만덕대로 155번길 86-9,부산광역시 북구 덕천1동 814-1,부산광역시,051-888-4602,35.2173751,129.0206571,2015-09-24
577,부산 북구청,전산교육장,부산광역시,북구,관공서,KT,Public WiFi,2013-9-1,부산광역시 북구 낙동대로 1570번길 33,부산광역시 북구 구포2동 1124-1,부산광역시,051-888-4602,35.1971491,128.9901281,2015-09-24
578,북구 디지털도서관(부산),로비,부산광역시,북구,지역문화시설,KT,Public WiFi,2013-9-1,부산광역시 북구 은행나무로 26,부산광역시 북구 만덕2동 843,부산광역시,051-888-4602,35.2061481,129.0370561,2015-09-24
579,북부산우체국,민원실,부산광역시,북구,관공서,KT,Public WiFi,2013-9-1,부산광역시 북구 화명신도시로 89,부산광역시 북구 화명동 2282,부산광역시,051-888-4602,35.2322571,129.0099011,2015-09-24
580,화정종합사회복지관,사무실,부산광역시,북구,서민복지시설,LGU+,Public WiFi,2013-9-1,부산광역시 북구 효열로 76-1,부산광역시 북구 금곡동 1108,부산광역시,051-888-4602,35.2525141,129.0148761,2015-09-24
581,화명종합사회복지관,사무실,부산광역시,북구,서민복지시설,LGU+,Public WiFi,2013-9-1,부산광역시 북구 금곡대로199번길 21,부산광역시 북구 화명동 2310,부산광역시,051-888-4602,35.2268391,129.0098891,2015-09-24
582,소상공인지원센터(부산),사무실,부산광역시,북구,관공서,SKT,Public WiFi,2013-9-1,부산광역시 북구 만덕대로27번길 3,부산광역시 북구 덕천동 398-4,부산광역시,051-888-4602,35.2110451,129.0079581,2015-09-24
583,부산장애인자립센터,사무실,부산광역시,북구,서민복지시설,SKT,Public WiFi,2013-9-1,부산광역시 북구 화명신도시로 117,부산광역시 북구 화명3동 2275-3,부산광역시,051-888-4602,35.2346851,129.0105021,2015-09-24
584,구포1동 주민센터,민원실,부산광역시,북구,관공서,KT,Public WiFi,2014-9-1,부산광역시 북구 낙동대로 1762번길 75,부산광역시 북구 구포1동 430-1,부산광역시,051-888-4602,35.2064681,129.0011401,2015-09-24
585,구포3동 주민센터,민원실,부산광역시,북구,관공서,KT,Public WiFi,2014-9-1,부산광역시 북구 시랑로118번길 23(구포동),부산광역시 북구 구포3동 1252-1,부산광역시,051-888-4602,35.1948981,129.0088031,2015-09-24
586,화명2동 주민센터,민원실,부산광역시,북구,관공서,KT,Public WiFi,2014-9-1,부산광역시 북구 양달로 58,부산광역시 북구 화명2동 318-2,부산광역시,051-888-4602,35.2435311,129.0198621,2015-09-24
587,화명3동 주민센터,민원실,부산광역시,북구,관공서,KT,Public WiFi,2014-9-1,부산광역시 북구 화명신도시로85,부산광역시 북구 화명3동 2285,부산광역시,051-888-4602,35.2319021,129.0100311,2015-09-24
588,덕천1동 주민센터,민원실,부산광역시,북구,관공서,KT,Public WiFi,2014-9-1,부산광역시 북구 만덕대로102번가길 11,부산광역시 북구 덕천1동 389-33,부산광역시,051-888-4602,35.2124681,129.0368831,2015-09-24
589,덕천3동 주민센터,민원실,부산광역시,북구,관공서,KT,Public WiFi,2014-9-1,부산광역시 북구 덕천로 118 (덕천동),부산광역시 북구 덕천동 809-1,부산광역시,051-888-4602,35.2130021,129.0110351,2015-09-24
590,만덕2동 주민센터,민원실,부산광역시,북구,관공서,KT,Public WiFi,2014-9-1,부산광역시 북구 만덕2로44번길10 (만덕동),부산광역시 북구 만덕2동 289-1,부산광역시,051-888-4602,35.2091491,129.0393011,2015-09-24
591,북구보건소,민원실,부산광역시,북구,서민복지시설,KT,Public WiFi,2014-9-1,부산광역시 북구 금곡대로 348 (화명동),부산광역시 북구 화명동 1531-4,부산광역시,051-888-4602,35.2585161,129.0161511,2015-09-24
592,덕천보건지소,민원실,부산광역시,북구,서민복지시설,KT,Public WiFi,2014-9-1,부산광역시 북구 만덕대로 89번길 9 (덕천동),부산광역시 북구 덕천동 378-7,부산광역시,051-888-4602,35.2124681,129.0368831,2015-09-24
593,동원종합사회복지관,사무실,부산광역시,북구,서민복지시설,KT,Public WiFi,2014-9-1,부산광역시 북구 금곡대로 616번지10-9,부산광역시 북구 금곡동 98-1,부산광역시,051-888-4602,35.2643911,129.0173661,2015-09-24
594,열린아동지역센터,사무실,부산광역시,북구,서민복지시설,KT,Public WiFi,2014-9-1,부산광역시 북구 은행나무로 35번길 11,부산광역시 북구 만덕2동 867-8,부산광역시,051-888-4602,35.2070431,129.0391171,2015-09-24
595,근로복지공단(부전),민원실,부산광역시,부산진구,관공서,LG U+,Public WiFi Free,2012-9-1,부산광역시 부산진구 중앙대로 766,부산광역시 부산진구 부전1동  91-5,부산광역시 부산진구청,051-605-4171,35.1604814,129.0618249,2016-01-01
596,부산상공회의소,민원실,부산광역시,부산진구,관공서,LG U+,Public WiFi Free,2012-9-1,부산광역시 부산진구 황령대로 24,부산광역시 부산진구 범천1동 853-1,부산광역시 부산진구청,051-605-4171,35.1478869,129.0622681,2016-01-01
597,전포사회복지관,민원실,부산광역시,부산진구,서민·복지시설,LG U+,Public WiFi Free,2012-9-1,부산광역시 부산진구 전포대로 190번길 35,부산광역시 부산진구 전포동 343-5,부산광역시 부산진구청,051-605-4171,35.1536436,129.0675507,2016-01-01
598,작은 청소년 도서관(부암1동),민원실,부산광역시,부산진구,서민·복지시설,SKT,Public WiFi Free,2012-9-1,부산광역시 부산진구 신천대로 241번길 41,부산광역시 부산진구 부암동 226,부산광역시 부산진구청,051-605-4171,35.1632732,129.0484424,2016-01-01
599,양정1동주민센터,민원실,부산광역시,부산진구,관공서,SKT,Public WiFi Free,2012-9-1,부산광역시 부산진구 범양로125번길 26,부산광역시 부산진구 양정동 507-7,부산광역시 부산진구청,051-605-4171,35.1744944,129.0643816,2016-01-01
600,범천1동주민센터,민원실,부산광역시,부산진구,관공서,SKT,Public WiFi Free,2012-9-1,부산광역시 부산진구 범일로192번길 21(범천동),부산광역시 부산진구 범천동 340-8,부산광역시 부산진구청,051-605-4171,35.1486628,129.0515511,2016-01-01
601,부산진구청,민원실,부산광역시,부산진구,관공서,KT,Public WiFi Free,2013-9-1,부산광역시 부산진구 시민공원로 30 (부암동),부산광역시 부산진구 부암동 666-16,부산광역시 부산진구청,051-605-4171,35.1626425,129.0531904,2016-01-01
602,양정2동주민센터,민원실,부산광역시,부산진구,관공서,KT,Public WiFi Free,2013-9-1,부산광역시 부산진구 양정로 15번길 26(양정동),부산광역시 부산진구 양정동 52-2,부산광역시 부산진구청,051-605-4171,35.1728816,129.0757379,2016-01-01
603,대한적십자(부전),민원실,부산광역시,부산진구,기타,KT,Public WiFi Free,2013-9-1,부산광역시 부산진구 중앙대로702번길 50,부산광역시 부산진구 부전2동 169-2,부산광역시 부산진구청,051-605-4171,35.1552394,129.0618731,2016-01-01
604,부산진우체국,민원실,부산광역시,부산진구,기타,KT,Public WiFi Free,2013-9-1,부산광역시 부산진구 가야대로 579,부산광역시 부산진구 가야3동 256-7,부산광역시 부산진구청,051-605-4171,35.1549269,129.0351725,2016-01-01
605,포천시청,수도사업소 1층,경기도,포천시,관공서,KT,NESPOT ollleh WiFi,2016-11-1,경기도 포천시  중앙로 87,경기도 포천시 신읍동 58-2,경기도 포천시청,031-538-2301,37.894599,127.200179,2016-08-31
606,포천시청,수도사업소 1층,경기도,포천시,관공서,KT,NESPOT ollleh WiFi,2016-11-1,경기도 포천시  중앙로 87,경기도 포천시 신읍동 58-2,경기도 포천시청,031-538-2301,37.894599,127.200179,2016-08-31
607,포천시청,수도사업소 2층,경기도,포천시,관공서,KT,NESPOT ollleh WiFi,2016-11-1,경기도 포천시  중앙로 87,경기도 포천시 신읍동 58-2,경기도 포천시청,031-538-2301,37.894599,127.200179,2016-08-31
608,포천시청,수도사업소 2층,경기도,포천시,관공서,KT,NESPOT ollleh WiFi,2016-11-1,경기도 포천시  중앙로 87,경기도 포천시 신읍동 58-2,경기도 포천시청,031-538-2301,37.894599,127.200179,2016-08-31
609,포천시청,본관 1층,경기도,포천시,관공서,KT,NESPOT ollleh WiFi,2016-11-1,경기도 포천시  중앙로 87,경기도 포천시 신읍동 58-2,경기도 포천시청,031-538-2301,37.894599,127.200179,2016-08-31
610,포천시청,본관 1층,경기도,포천시,관공서,KT,NESPOT ollleh WiFi,2016-11-1,경기도 포천시  중앙로 87,경기도 포천시 신읍동 58-2,경기도 포천시청,031-538-2301,37.894599,127.200179,2016-08-31
611,포천시청,본관 2층,경기도,포천시,관공서,KT,NESPOT ollleh WiFi,2016-11-1,경기도 포천시  중앙로 87,경기도 포천시 신읍동 58-2,경기도 포천시청,031-538-2301,37.894599,127.200179,2016-08-31
612,포천시청,본관 2층,경기도,포천시,관공서,KT,NESPOT ollleh WiFi,2016-11-1,경기도 포천시  중앙로 87,경기도 포천시 신읍동 58-2,경기도 포천시청,031-538-2301,37.894599,127.200179,2016-08-31
613,포천시청,본관 3층,경기도,포천시,관공서,KT,NESPOT ollleh WiFi,2016-11-1,경기도 포천시  중앙로 87,경기도 포천시 신읍동 58-2,경기도 포천시청,031-538-2301,37.894599,127.200179,2016-08-31
614,포천시청,제1별관 1층,경기도,포천시,관공서,KT,NESPOT ollleh WiFi,2016-11-1,경기도 포천시  중앙로 87,경기도 포천시 신읍동 58-2,경기도 포천시청,031-538-2301,37.894599,127.200179,2016-08-31
615,포천시청,제1별관 2층,경기도,포천시,관공서,KT,NESPOT ollleh WiFi,2016-11-1,경기도 포천시  중앙로 87,경기도 포천시 신읍동 58-2,경기도 포천시청,031-538-2301,37.894599,127.200179,2016-08-31
616,포천시청,제1별관2층,경기도,포천시,관공서,KT,NESPOT ollleh WiFi,2016-11-1,경기도 포천시  중앙로 87,경기도 포천시 신읍동 58-2,경기도 포천시청,031-538-2301,37.894599,127.200179,2016-08-31
617,평리4동,민원실,대구광역시,서구,관공서,SKT,public Wifi,2014-1-1,대구광역시 서구 국채보상로46길37-3,대구광역시 서구 평리동1346-3,대구광역시 서구청,053-663-2473,35.8673511,128.5568098,2016-09-10
618,포천시청,제1별관 3층,경기도,포천시,관공서,KT,NESPOT ollleh WiFi,2016-11-1,경기도 포천시  중앙로 87,경기도 포천시 신읍동 58-2,경기도 포천시청,031-538-2301,37.894599,127.200179,2016-08-31
619,포천시청,제1별관 3층,경기도,포천시,관공서,KT,NESPOT ollleh WiFi,2016-11-1,경기도 포천시  중앙로 87,경기도 포천시 신읍동 58-2,경기도 포천시청,031-538-2301,37.894599,127.200179,2016-08-31
620,포천시의회,포천시의회 3층,경기도,포천시,관공서,KT,NESPOT ollleh WiFi,2016-11-1,경기도 포천시  중앙로 87,경기도 포천시 신읍동 58-2,경기도 포천시청,031-538-2301,37.894599,127.200179,2016-08-31
621,포천시의회,포천시의회 2층,경기도,포천시,관공서,KT,NESPOT ollleh WiFi,2016-11-1,경기도 포천시  중앙로 87,경기도 포천시 신읍동 58-2,경기도 포천시청,031-538-2301,37.894599,127.200179,2016-08-31
622,포천시의회,포천시의회 1층,경기도,포천시,관공서,KT,NESPOT ollleh WiFi,2016-11-1,경기도 포천시  중앙로 87,경기도 포천시 신읍동 58-2,경기도 포천시청,031-538-2301,37.894599,127.200179,2016-08-31
623,포천시의회,포천시의회 1층,경기도,포천시,관공서,KT,NESPOT ollleh WiFi,2016-11-1,경기도 포천시  중앙로 87,경기도 포천시 신읍동 58-2,경기도 포천시청,031-538-2301,37.894599,127.200179,2016-08-31
624,포천시의회,포천시의회1층,경기도,포천시,관공서,KT,NESPOT ollleh WiFi,2016-11-1,경기도 포천시  중앙로 87,경기도 포천시 신읍동 58-2,경기도 포천시청,031-538-2301,37.894599,127.200179,2016-08-31
625,포천보건소,포천보건소 2층,경기도,포천시,관공서,KT,NESPOT ollleh WiFi,2016-11-1,,경기도 포천시 신읍동 164-3,경기도 포천시청,031-538-2301,37.900773,127.201127,2016-08-31
626,포천보건소,포천보건소 2층,경기도,포천시,관공서,KT,NESPOT ollleh WiFi,2016-11-1,,경기도 포천시 신읍동 164-3,경기도 포천시청,031-538-2301,37.900773,127.201127,2016-08-31
627,군내면사무소,군내면사무소 1층,경기도,포천시,관공서,KT,NESPOT ollleh WiFi,2016-10-1,,경기도 포천시 군내면 구읍리195-1,경기도 포천시청,031-538-2301,37.888944,127.217632,2016-08-31
628,소흘읍사무소,소흘읍사무소 1층,경기도,포천시,관공서,KT,NESPOT ollleh WiFi,2016-9-1,,경기도 포천시 소흘읍 송우리 495,경기도 포천시청,031-538-2301,37.823381,127.138663,2016-08-31
629,포천동사무소,포천동사무소 1층,경기도,포천시,관공서,KT,NESPOT ollleh WiFi,2016-11-1,,경기도 포천시 신읍동 169-2,경기도 포천시청,031-538-2301,37.898218,127.199936,2016-08-31
630,가산면사무소,가산면사무소 1층,경기도,포천시,관공서,KT,NESPOT ollleh WiFi,2016-9-1,,경기도 포천시 가산면 마산리 601-1,경기도 포천시청,031-538-2301,37.848403,127.186356,2016-08-31
631,가산면사무소,가산면사무소 2층,경기도,포천시,관공서,KT,NESPOT ollleh WiFi,2016-9-1,,경기도 포천시 가산면 마산리 601-1,경기도 포천시청,031-538-2301,37.848403,127.186356,2016-08-31
632,관인면사무소,관인면사무소 1층,경기도,포천시,관공서,KT,NESPOT ollleh WiFi,2016-9-1,,경기도 포천시 관인면 탄동리 644-8,경기도 포천시청,031-538-2301,38.157832,127.250439,2016-08-31
633,창수면사무소,창수면사무소 1층,경기도,포천시,관공서,KT,NESPOT ollleh WiFi,2016-11-1,,경기도 포천시 창수면 주원리 249-1,경기도 포천시청,031-538-2301,37.991443,127.189228,2016-08-31
634,창수면사무소,창수면사무소 2층,경기도,포천시,관공서,KT,NESPOT ollleh WiFi,2016-11-1,,경기도 포천시 창수면 주원리 249-1,경기도 포천시청,031-538-2301,37.991443,127.189228,2016-08-31
635,선단동사무소,선단동사무소 1층,경기도,포천시,관공서,KT,NESPOT ollleh WiFi,2016-9-1,,경기도 포천시 선단동 선단동 631,경기도 포천시청,031-538-2301,37.991443,127.189228,2016-08-31
636,신북면사무소,신북면사무소 1층,경기도,포천시,관공서,KT,NESPOT ollleh WiFi,2016-10-1,,경기도 포천시 신북면 기지리 893-1,경기도 포천시청,031-538-2301,37.933845,127.226471,2016-08-31
637,신북면사무소,신북면사무소 1층,경기도,포천시,관공서,KT,NESPOT ollleh WiFi,2016-10-1,,경기도 포천시 신북면 기지리 893-1,경기도 포천시청,031-538-2301,37.933845,127.226471,2016-08-31
638,영중면사무소,영중면사무소 1층,경기도,포천시,관공서,KT,NESPOT ollleh WiFi,2016-11-1,,경기도 포천시 영중면 양문리 833-2,경기도 포천시청,031-538-2301,38.005629,127.245302,2016-08-31
639,영북면사무소,영북면사무소 1층,경기도,포천시,관공서,KT,NESPOT ollleh WiFi,2016-11-1,,경기도 포천시 영북면 운천리 340-6,경기도 포천시청,031-538-2301,38.088967,127.275419,2016-08-31
640,내촌면사무소,내촌면사무소 1층,경기도,포천시,관공서,KT,NESPOT ollleh WiFi,2016-9-1,,경기도 포천시 내촌면 내리 368-2,경기도 포천시청,031-538-2301,37.786265,127.228684,2016-08-31
641,이동면사무소,이동면사무소 1층,경기도,포천시,관공서,KT,NESPOT ollleh WiFi,2016-9-1,,경기도 포천시 이동면 장암리 245-3,경기도 포천시청,031-538-2301,38.030634,127.367629,2016-08-31
642,화현면사무소,화현면사무소 1층,경기도,포천시,관공서,KT,NESPOT ollleh WiFi,2016-9-1,,경기도 포천시 화현면 화현리 874-4,경기도 포천시청,031-538-2301,37.900288,127.288128,2016-08-31
643,일동면사무소,일동면사무소 1층,경기도,포천시,관공서,KT,NESPOT ollleh WiFi,2016-9-1,,경기도 포천시 일동면 기산리 96-137,경기도 포천시청,031-538-2301,37.961189,127.317272,2016-08-31
644,일동면사무소,일동면사무소 1층,경기도,포천시,관공서,KT,NESPOT ollleh WiFi,2016-9-1,,경기도 포천시 일동면 기산리 96-137,경기도 포천시청,031-538-2301,37.961189,127.317272,2016-08-31
645,여성회관,여성회관 2층,경기도,포천시,서민·복지시설,KT,NESPOT ollleh WiFi,2016-11-1,,경기도 포천시 군내면 하성북리 120,경기도 포천시청,031-538-2301,37.90603,127.232558,2016-08-31
646,여성회관,여성회관 3층,경기도,포천시,서민·복지시설,KT,NESPOT ollleh WiFi,2016-11-1,,경기도 포천시 군내면 하성북리 120,경기도 포천시청,031-538-2301,37.90603,127.232558,2016-08-31
647,소흘도서관,소흘도서관 1층,경기도,포천시,관공서,KT,NESPOT ollleh WiFi,2016-11-1,,경기도 포천시 소흘읍 송우리 728-7,경기도 포천시청,031-538-2301,37.829605,127.137534,2016-08-31
648,소흘도서관,소흘도서관 2층,경기도,포천시,관공서,KT,NESPOT ollleh WiFi,2016-11-1,,경기도 포천시 소흘읍 송우리 728-7,경기도 포천시청,031-538-2301,37.829605,127.137534,2016-08-31
649,소흘도서관,소흘도서관 3층,경기도,포천시,관공서,KT,NESPOT ollleh WiFi,2016-11-1,,경기도 포천시 소흘읍 송우리 728-7,경기도 포천시청,031-538-2301,37.829605,127.137534,2016-08-31
650,일동도서관,일동도서관 1층,경기도,포천시,관공서,KT,NESPOT ollleh WiFi,2016-11-1,,경기도 포천시 일동면 기산리 284-3,경기도 포천시청,031-538-2301,37.954879,127.315518,2016-08-31
651,일동도서관,일동도서관 2층,경기도,포천시,관공서,KT,NESPOT ollleh WiFi,2016-11-1,,경기도 포천시 일동면 기산리 284-3,경기도 포천시청,031-538-2301,37.954879,127.315518,2016-08-31
652,영중도서관,영중도서관 1층,경기도,포천시,관공서,KT,NESPOT ollleh WiFi,2016-11-1,,경기도 포천시 영중면 양문리 833-2,경기도 포천시청,031-538-2301,38.005629,127.245302,2016-08-31
653,영중도서관,영중도서관 2층,경기도,포천시,관공서,KT,NESPOT ollleh WiFi,2016-11-1,,경기도 포천시 영중면 양문리 833-2,경기도 포천시청,031-538-2301,38.005629,127.245302,2016-08-31
654,포천시청,포천시청(제3별관)3F산림녹지과_D,경기도,포천시,관공서,SKT,T wifi zone,2016-11-1,경기도 포천시  중앙로 87,경기도 포천시 신읍동 58-2,경기도 포천시청,031-538-2301,37.894599,127.200179,2016-08-31
655,포천시청,포천시청(제3별관)2F재난관리과_D,경기도,포천시,관공서,SKT,T wifi zone,2016-11-1,경기도 포천시  중앙로 87,경기도 포천시 신읍동 58-2,경기도 포천시청,031-538-2301,37.894599,127.200179,2016-08-31
656,상중이동,민원실,대구광역시,서구,관공서,KT,public Wifi,2014-1-1,대구광역시 서구 평리로35길90-6,대구광역시 서구 중리동1082-11,대구광역시 서구청,053-663-2473,35.8679273,128.5442472,2016-09-10
657,포천시청,포천시청(제3별관)1F문화관광과_D,경기도,포천시,관공서,SKT,T wifi zone,2016-11-1,경기도 포천시  중앙로 87,경기도 포천시 신읍동 58-2,경기도 포천시청,031-538-2301,37.894599,127.200179,2016-08-31
658,포천시청,포천시청(제2별관)3F기획예산과_D,경기도,포천시,관공서,SKT,T wifi zone,2016-11-1,경기도 포천시  중앙로 87,경기도 포천시 신읍동 58-2,경기도 포천시청,031-538-2301,37.894599,127.200179,2016-08-31
659,포천시청,포천시청(제2별관)2F미래도시사업소_D,경기도,포천시,관공서,SKT,T wifi zone,2016-11-1,경기도 포천시  중앙로 87,경기도 포천시 신읍동 58-2,경기도 포천시청,031-538-2301,37.894599,127.200179,2016-08-31
660,포천시청,포천시청(제1별관)3F환경관리과_D,경기도,포천시,관공서,SKT,T wifi zone,2016-11-1,경기도 포천시  중앙로 87,경기도 포천시 신읍동 58-2,경기도 포천시청,031-538-2301,37.894599,127.200179,2016-08-31
661,포천시청,포천시청(제1별관)3F사무실_D,경기도,포천시,관공서,SKT,T wifi zone,2016-11-1,경기도 포천시  중앙로 87,경기도 포천시 신읍동 58-2,경기도 포천시청,031-538-2301,37.894599,127.200179,2016-08-31
662,포천시청,포천시청(제1별관)2F지역경제과_D,경기도,포천시,관공서,SKT,T wifi zone,2016-11-1,경기도 포천시  중앙로 87,경기도 포천시 신읍동 58-2,경기도 포천시청,031-538-2301,37.894599,127.200179,2016-08-31
663,포천시청,포천시청(제1별관)2F주민생활지원과_D,경기도,포천시,관공서,SKT,T wifi zone,2016-11-1,경기도 포천시  중앙로 87,경기도 포천시 신읍동 58-2,경기도 포천시청,031-538-2301,37.894599,127.200179,2016-08-31
664,포천시청,포천시청(제1별관)1F주민생활지원과_D,경기도,포천시,관공서,SKT,T wifi zone,2016-11-1,경기도 포천시  중앙로 87,경기도 포천시 신읍동 58-2,경기도 포천시청,031-538-2301,37.894599,127.200179,2016-08-31
665,포천시청,포천시청(제1별관)1F농협출장소_D,경기도,포천시,관공서,SKT,T wifi zone,2016-11-1,경기도 포천시  중앙로 87,경기도 포천시 신읍동 58-2,경기도 포천시청,031-538-2301,37.894599,127.200179,2016-08-31
666,포천시청,포천시청(재난상황실)2F회의실_D,경기도,포천시,관공서,SKT,T wifi zone,2016-11-1,경기도 포천시  중앙로 87,경기도 포천시 신읍동 58-2,경기도 포천시청,031-538-2301,37.894599,127.200179,2016-08-31
667,포천시의회,포천시청(의회청사)3F통신실_D,경기도,포천시,관공서,SKT,T wifi zone,2016-11-1,경기도 포천시  중앙로 87,경기도 포천시 신읍동 58-2,경기도 포천시청,031-538-2301,37.894599,127.200179,2016-08-31
668,포천시의회,포천시청(의회청사)3F복도_D,경기도,포천시,관공서,SKT,T wifi zone,2016-11-1,경기도 포천시  중앙로 87,경기도 포천시 신읍동 58-2,경기도 포천시청,031-538-2301,37.894599,127.200179,2016-08-31
669,포천시의회,포천시청(의회청사)2F휴게실_D,경기도,포천시,관공서,SKT,T wifi zone,2016-11-1,경기도 포천시  중앙로 87,경기도 포천시 신읍동 58-2,경기도 포천시청,031-538-2301,37.894599,127.200179,2016-08-31
670,포천시의회,포천시청(의회청사)2F복도_D,경기도,포천시,관공서,SKT,T wifi zone,2016-11-1,경기도 포천시  중앙로 87,경기도 포천시 신읍동 58-2,경기도 포천시청,031-538-2301,37.894599,127.200179,2016-08-31
671,포천시의회,포천시청(의회청사)1F사무실천정_D,경기도,포천시,관공서,SKT,T wifi zone,2016-11-1,경기도 포천시  중앙로 87,경기도 포천시 신읍동 58-2,경기도 포천시청,031-538-2301,37.894599,127.200179,2016-08-31
672,포천시의회,포천시청(의회청사)1F사무실벽면_D,경기도,포천시,관공서,SKT,T wifi zone,2016-11-1,경기도 포천시  중앙로 87,경기도 포천시 신읍동 58-2,경기도 포천시청,031-538-2301,37.894599,127.200179,2016-08-31
673,포천시청,포천시청(본관)3F복도_D,경기도,포천시,관공서,SKT,T wifi zone,2016-11-1,경기도 포천시  중앙로 87,경기도 포천시 신읍동 58-2,경기도 포천시청,031-538-2301,37.894599,127.200179,2016-08-31
674,포천시청,포천시청(본관)3F대강당_D,경기도,포천시,관공서,SKT,T wifi zone,2016-11-1,경기도 포천시  중앙로 87,경기도 포천시 신읍동 58-2,경기도 포천시청,031-538-2301,37.894599,127.200179,2016-08-31
675,포천시청,포천시청(본관)2F시장회의실_D,경기도,포천시,관공서,SKT,T wifi zone,2016-11-1,경기도 포천시  중앙로 87,경기도 포천시 신읍동 58-2,경기도 포천시청,031-538-2301,37.894599,127.200179,2016-08-31
676,포천시청,포천시청(본관)2F브리핑룸_D,경기도,포천시,관공서,SKT,T wifi zone,2016-11-1,경기도 포천시  중앙로 87,경기도 포천시 신읍동 58-2,경기도 포천시청,031-538-2301,37.894599,127.200179,2016-08-31
677,포천시청,포천시청(본관)2F복도_D,경기도,포천시,관공서,SKT,T wifi zone,2016-11-1,경기도 포천시  중앙로 87,경기도 포천시 신읍동 58-2,경기도 포천시청,031-538-2301,37.894599,127.200179,2016-08-31
678,포천시청,포천시청(본관)1F민원과_D,경기도,포천시,관공서,SKT,T wifi zone,2016-11-1,경기도 포천시  중앙로 87,경기도 포천시 신읍동 58-2,경기도 포천시청,031-538-2301,37.894599,127.200179,2016-08-31
679,일동도서관,포천시립일동도서관 2F 종합열람실,경기도,포천시,관공서,SKT,Public WiFi free,2014-1-1,,경기도 포천시 일동면 기산리 284-3,경기도 포천시청,031-538-2301,37.954879,127.315518,2016-08-31
680,일동도서관,포천시립일동도서관 2F 열람실,경기도,포천시,관공서,SKT,Public WiFi free,2014-1-1,,경기도 포천시 일동면 기산리 284-3,경기도 포천시청,031-538-2301,37.954879,127.315518,2016-08-31
681,일동도서관,포천시립일동도서관 1F 열람실,경기도,포천시,관공서,SKT,Public WiFi free,2014-1-1,,경기도 포천시 일동면 기산리 284-3,경기도 포천시청,031-538-2301,37.954879,127.315518,2016-08-31
682,일동도서관,포천시립일동도서관 1F 세미나실,경기도,포천시,관공서,SKT,Public WiFi free,2014-1-1,,경기도 포천시 일동면 기산리 284-3,경기도 포천시청,031-538-2301,37.954879,127.315518,2016-08-31
